FIPS,State,County,TOT_POP,TOT_MALE,TOT_FEMALE,pop_den_permile,diab_perc,hyper_perc,old_perc,CRUDE_RATE,CRD_MR,GEOID,Latitude,Longitude,CGPS
1001,Alabama,AUTAUGA COUNTY,55601,26995,28606,91.8,9.9,40.38,0.11,553.5,81.79,0500000US01001,32.53492165,-86.64274304,AUTAUGA
1003,Alabama,BALDWIN COUNTY,218022,105657,112365,114.6,8.5,38.15,0.14,598.0,54.28,0500000US01003,30.72748439,-87.72257009,BALDWIN
1005,Alabama,BARBOUR COUNTY,24881,13133,11748,31.0,15.7,48.28,0.13,546.0,69.82,0500000US01005,31.86957921,-85.39321162,BARBOUR
1007,Alabama,BIBB COUNTY,22400,11921,10479,36.8,13.3,44.87,0.11,566.0,84.49,0500000US01007,32.9986234,-87.12647707,BIBB
1009,Alabama,BLOUNT COUNTY,57840,28500,29340,88.9,14.9,41.81,0.13,551.0,87.05,0500000US01009,33.98086948,-86.56737928,BLOUNT
1011,Alabama,BULLOCK COUNTY,10138,5527,4611,17.5,22.4,52.45,0.11,569.5,51.49,0500000US01011,32.10052535,-85.71567887,BULLOCK
1013,Alabama,BUTLER COUNTY,19680,9165,10515,27.0,16.9,47.15,0.14,546.0,75.09,0500000US01013,31.75244145,-86.68029177,BUTLER
1015,Alabama,CALHOUN COUNTY,114277,54914,59363,195.7,15.6,44.27,0.12,557.5,87.32,0500000US01015,33.77141933,-85.82604969,CALHOUN
1017,Alabama,CHAMBERS COUNTY,33615,16093,17522,57.4,17.5,46.86,0.13,707.0,84.00,0500000US01017,32.91434666,-85.39202904,CHAMBERS
1019,Alabama,CHEROKEE COUNTY,26032,12896,13136,46.9,12.2,43.58,0.16,627.0,93.04,0500000US01019,34.1759043,-85.603803,CHEROKEE
1021,Alabama,CHILTON COUNTY,44153,21668,22485,63.0,16.8,42.75,0.11,508.0,88.02,0500000US01021,32.84786373,-86.71879906,CHILTON
1023,Alabama,CHOCTAW COUNTY,12841,6070,6771,15.2,13.9,47.28,0.16,635.5,60.19,0500000US01023,32.01977245,-88.26317884,CHOCTAW
1025,Alabama,CLARKE COUNTY,23920,11328,12592,20.9,20.1,47.73,0.14,624.0,69.30,0500000US01025,31.67667619,-87.83080894,CLARKE
1027,Alabama,CLAY COUNTY,13275,6492,6783,23.1,11.2,42.92,0.14,642.5,76.28,0500000US01027,33.26902397,-85.86057933,CLAY
1029,Alabama,CLEBURNE COUNTY,14987,7421,7566,26.7,10.4,42.43,0.13,612.0,92.84,0500000US01029,33.67451865,-85.51881716,CLEBURNE
1031,Alabama,COFFEE COUNTY,51909,25521,26388,73.6,14.4,41.72,0.12,498.5,79.42,0500000US01031,31.4026474,-85.98815339,COFFEE
1033,Alabama,COLBERT COUNTY,54762,26259,28503,91.8,13.5,43.14,0.14,583.5,80.43,0500000US01033,34.70046997,-87.80492648,COLBERT
1035,Alabama,CONECUH COUNTY,12277,5881,6396,15.6,23.7,46.5,0.16,634.5,76.40,0500000US01035,31.42923169,-86.99366638,CONECUH
1037,Alabama,COOSA COUNTY,10715,5399,5316,17.7,17.9,45.8,0.16,542.0,78.67,0500000US01037,32.93624337,-86.24765278,COOSA
1039,Alabama,COVINGTON COUNTY,36986,17896,19090,36.6,12.9,41.99,0.15,666.5,74.47,0500000US01039,31.24849105,-86.45126603,COVINGTON
1041,Alabama,CRENSHAW COUNTY,13824,6674,7150,22.8,16.3,44.41,0.13,621.5,107.91,0500000US01041,31.73152346,-86.31354958,CRENSHAW
1043,Alabama,CULLMAN COUNTY,83442,41245,42197,109.4,17.2,41.11,0.13,570.5,89.78,0500000US01043,34.13194106,-86.86757816,CULLMAN
1045,Alabama,DALE COUNTY,48956,24023,24933,89.6,14.4,42.57,0.12,537.5,84.85,0500000US01045,31.43180989,-85.61100423,DALE
1047,Alabama,DALLAS COUNTY,38310,17685,20625,44.8,13.9,51.25,0.12,621.0,65.59,0500000US01047,32.32597439,-87.10647388,DALLAS
1049,Alabama,DEKALB COUNTY,71385,35428,35957,91.5,11.2,42.3,0.12,478.5,101.83,0500000US01049,34.45980125,-85.80410866,DEKALB
1051,Alabama,ELMORE COUNTY,81887,39585,42302,128.2,14.9,41.5,0.1,540.0,91.25,0500000US01051,32.5966471,-86.14915945,ELMORE
1053,Alabama,ESCAMBIA COUNTY,36748,18628,18120,40.5,17.1,44.73,0.12,556.5,67.63,0500000US01053,31.12613597,-87.16157884,ESCAMBIA
1055,Alabama,ETOWAH COUNTY,102501,49653,52848,195.2,13.5,43.68,0.13,619.0,97.44,0500000US01055,34.04525561,-86.03476619,ETOWAH
1057,Alabama,FAYETTE COUNTY,16433,8023,8410,27.5,21.0,43.43,0.14,628.0,86.07,0500000US01057,33.72122295,-87.73885854,FAYETTE
1059,Alabama,FRANKLIN COUNTY,31363,15823,15540,50.0,13.3,42.8,0.12,513.5,104.32,0500000US01059,34.4416923,-87.84373463,FRANKLIN
1061,Alabama,GENEVA COUNTY,26314,12846,13468,46.6,14.3,42.23,0.14,620.0,78.80,0500000US01061,31.09505337,-85.83908681,GENEVA
1063,Alabama,GREENE COUNTY,8233,3887,4346,14.0,11.3,53.08,0.15,648.5,57.38,0500000US01063,32.85312838,-87.95222397,GREENE
1065,Alabama,HALE COUNTY,14726,7008,7718,24.5,15.5,50.28,0.13,528.5,61.15,0500000US01065,32.76266208,-87.62914672,HALE
1067,Alabama,HENRY COUNTY,17209,8300,8909,30.8,13.7,44.29,0.15,638.0,71.04,0500000US01067,31.51470413,-85.24141391,HENRY
1069,Alabama,HOUSTON COUNTY,104722,50286,54436,175.1,11.8,42.23,0.12,542.5,66.90,0500000US01069,31.15319999,-85.30247388,HOUSTON
1071,Alabama,JACKSON COUNTY,51736,25390,26346,49.4,13.9,40.82,0.14,617.5,94.69,0500000US01071,34.77945409,-85.9993545,JACKSON
1073,Alabama,JEFFERSON COUNTY,659300,311591,347709,592.5,11.7,43.63,0.1,527.5,59.24,0500000US01073,33.55431263,-86.89649193,JEFFERSON
1075,Alabama,LAMAR COUNTY,13844,6767,7077,24.1,16.0,43.0,0.16,711.5,89.17,0500000US01075,33.77913539,-88.09695813,LAMAR
1077,Alabama,LAUDERDALE COUNTY,92387,44327,48060,138.8,11.9,40.43,0.14,565.5,75.94,0500000US01077,34.90140674,-87.65400978,LAUDERDALE
1079,Alabama,LAWRENCE COUNTY,32957,16047,16910,49.7,16.9,43.68,0.13,606.0,92.36,0500000US01079,34.52167746,-87.31098919,LAWRENCE
1081,Alabama,LEE COUNTY,163941,80639,83302,230.8,9.5,41.64,0.08,356.2,74.45,0500000US01081,32.60114594,-85.35547099,LEE
1083,Alabama,LIMESTONE COUNTY,96174,48156,48018,147.8,12.5,41.38,0.1,536.5,64.91,0500000US01083,34.81010106,-86.98140702,LIMESTONE
1085,Alabama,LOWNDES COUNTY,9974,4670,5304,15.8,11.4,51.98,0.13,675.0,55.88,0500000US01085,32.15474555,-86.65010769,LOWNDES
1087,Alabama,MACON COUNTY,18439,8383,10056,35.2,21.3,54.25,0.13,613.5,45.36,0500000US01087,32.38594742,-85.69262933,MACON
1089,Alabama,MADISON COUNTY,366519,179074,187445,417.7,12.4,38.72,0.1,504.2,61.87,0500000US01089,34.76309084,-86.55022568,MADISON
1091,Alabama,MARENGO COUNTY,19066,8933,10133,21.5,14.9,48.06,0.14,599.0,62.26,0500000US01091,32.24766404,-87.78953757,MARENGO
1093,Alabama,MARION COUNTY,29763,14686,15077,41.5,18.1,43.35,0.15,664.5,87.77,0500000US01093,34.13655444,-87.88713484,MARION
1095,Alabama,MARSHALL COUNTY,96109,47502,48607,164.4,10.2,40.54,0.12,542.0,105.63,0500000US01095,34.36695081,-86.30662894,MARSHALL
1097,Alabama,MOBILE COUNTY,413757,197077,216680,335.9,12.6,43.42,0.11,517.5,65.83,0500000US01097,30.78720715,-88.20580853,MOBILE
1099,Alabama,MONROE COUNTY,21067,10005,11062,22.5,15.7,45.59,0.14,579.0,64.72,0500000US01099,31.57088026,-87.36542968,MONROE
1101,Alabama,MONTGOMERY COUNTY,225763,106522,119241,292.5,13.0,43.69,0.1,471.5,68.04,0500000US01101,32.22026544,-86.2076176,MONTGOMERY
1103,Alabama,MORGAN COUNTY,119089,58682,60407,206.3,11.1,40.43,0.12,576.0,76.82,0500000US01103,34.45346807,-86.85292439,MORGAN
1105,Alabama,PERRY COUNTY,9140,4281,4859,14.7,13.6,52.56,0.14,522.0,67.18,0500000US01105,32.63845729,-87.29440935,PERRY
1107,Alabama,PICKENS COUNTY,19938,9948,9990,22.4,12.7,47.48,0.13,574.0,63.94,0500000US01107,33.28079464,-88.08875113,PICKENS
1109,Alabama,PIKE COUNTY,33338,16098,17240,48.9,12.1,45.38,0.1,470.5,72.77,0500000US01109,31.8027237,-85.94092205,PIKE
1111,Alabama,RANDOLPH COUNTY,22725,11056,11669,39.5,13.8,43.78,0.14,601.5,73.30,0500000US01111,33.29378572,-85.45912804,RANDOLPH
1113,Alabama,RUSSELL COUNTY,57781,27745,30036,82.6,18.2,46.13,0.09,512.0,80.35,0500000US01113,32.28839176,-85.18489827,RUSSELL
1115,Alabama,ST. CLAIR COUNTY,88690,44027,44663,132.3,12.3,42.83,0.11,563.0,91.50,0500000US01115,33.71569295,-86.31470419,ST. CLAIR
1117,Alabama,SHELBY COUNTY,215707,104270,111437,248.5,9.6,35.26,0.1,455.5,53.63,0500000US01117,33.26427788,-86.66066575,SHELBY
1119,Alabama,SUMTER COUNTY,12691,5802,6889,15.2,18.7,53.48,0.12,533.5,51.49,0500000US01119,32.5910572,-88.19884715,SUMTER
1121,Alabama,TALLADEGA COUNTY,79828,38580,41248,111.7,14.3,46.36,0.12,558.5,89.67,0500000US01121,33.38008281,-86.16588477,TALLADEGA
1123,Alabama,TALLAPOOSA COUNTY,40497,19632,20865,58.1,13.3,42.96,0.15,663.0,83.09,0500000US01123,32.86237746,-85.79749844,TALLAPOOSA
1125,Alabama,TUSCALOOSA COUNTY,208911,100589,108322,147.3,12.0,43.01,0.09,438.2,71.00,0500000US01125,33.28955529,-87.52512644,TUSCALOOSA
1127,Alabama,WALKER COUNTY,63711,31040,32671,84.7,12.2,43.39,0.13,684.0,119.70,0500000US01127,33.80331786,-87.29733883,WALKER
1129,Alabama,WASHINGTON COUNTY,16378,8055,8323,16.3,14.2,44.84,0.13,530.0,64.48,0500000US01129,31.40762873,-88.20785716,WASHINGTON
1131,Alabama,WILCOX COUNTY,10627,5056,5571,13.1,17.1,52.62,0.13,620.0,65.03,0500000US01131,31.98930732,-87.3082205,WILCOX
1133,Alabama,WINSTON COUNTY,23660,11655,12005,39.9,17.0,43.17,0.15,607.5,109.56,0500000US01133,34.14920658,-87.37365257,WINSTON
2013,Alaska,ALEUTIANS EAST BOROUGH,3515,2374,1141,0.4,13.0,40.15,0.06,120.3,33.95,0500000US02013,55.36650712,-161.98133033,ALEUTIANS EAST
2016,Alaska,ALEUTIANS WEST CENSUS AREA,5723,3750,1973,1.3,10.7,37.95,0.03,225.2,33.95,0500000US02016,52.79799632,-106.60605991,ALEUTIANS WEST CENSUS
2020,Alaska,ANCHORAGE MUNICIPALITY,291538,148384,143154,171.2,8.2,34.8,0.07,377.2,46.53,0500000US02020,61.1508253,-149.10911748,ANCHORAGE
2050,Alaska,BETHEL CENSUS AREA,18216,9376,8840,0.4,7.0,38.61,0.04,218.2,77.79,0500000US02050,60.91323025,-159.81802273,BETHEL CENSUS
2060,Alaska,BRISTOL BAY BOROUGH,877,468,409,2.0,13.7,37.43,0.08,447.8,58.79,0500000US02060,58.74386361,-156.69997746,BRISTOL BAY
2068,Alaska,DENALI BOROUGH,2059,1146,913,0.1,5.1,37.09,0.05,308.2,61.13,0500000US02068,63.67164253,-150.01171492,DENALI
2070,Alaska,DILLINGHAM CENSUS AREA,5000,2518,2482,0.3,10.5,37.26,0.05,329.5,71.15,0500000US02070,59.79906755,-158.23508642,DILLINGHAM CENSUS
2090,Alaska,FAIRBANKS NORTH STAR BOROUGH,98971,53310,45661,13.3,7.1,35.03,0.06,315.0,54.63,0500000US02090,64.80776532,-146.56541128,FAIRBANKS NORTH STAR
2100,Alaska,HAINES BOROUGH,2474,1222,1252,1.1,5.5,33.72,0.13,463.0,51.02,0500000US02100,59.11331999,-135.48850444,HAINES
2110,Alaska,JUNEAU CITY AND BOROUGH,32113,16313,15800,11.6,6.2,33.29,0.08,386.0,45.01,0500000US02110,58.44404567,-134.15146393,JUNEAU CITY AND
2122,Alaska,KENAI PENINSULA BOROUGH,58533,30488,28045,3.4,7.1,35.75,0.1,490.8,51.15,0500000US02122,60.26541332,-151.5652439,KENAI PENINSULA
2130,Alaska,KETCHIKAN GATEWAY BOROUGH,13918,7102,6816,2.8,8.0,36.61,0.1,-1.0,55.50,0500000US02130,55.58532588,-130.92877546,KETCHIKAN GATEWAY
2150,Alaska,KODIAK ISLAND BOROUGH,13345,7096,6249,2.1,8.2,35.29,0.06,347.0,50.37,0500000US02150,57.67704281,-153.78058229,KODIAK ISLAND
2164,Alaska,LAKE AND PENINSULA BOROUGH,1587,813,774,0.1,9.5,38.59,0.06,368.0,71.15,0500000US02164,58.65291903,-156.18684615,LAKE AND PENINSULA
2170,Alaska,MATANUSKA-SUSITNA BOROUGH,107610,55867,51743,3.6,8.5,36.39,0.07,411.0,53.46,0500000US02170,62.31621944,-149.57141591,MATANUSKA-SUSITNA
2180,Alaska,NOME CENSUS AREA,10008,5267,4741,0.4,8.2,37.38,0.04,349.2,72.14,0500000US02180,64.91109214,-164.02721168,NOME CENSUS
2185,Alaska,NORTH SLOPE BOROUGH,9872,6145,3727,0.1,8.4,35.67,0.04,285.5,89.68,0500000US02185,69.31216024,-153.48157989,NORTH SLOPE
2188,Alaska,NORTHWEST ARCTIC BOROUGH,7671,4141,3530,0.2,11.6,37.45,0.05,253.9,63.38,0500000US02188,67.05300867,-159.72101577,NORTHWEST ARCTIC
2220,Alaska,SITKA CITY AND BOROUGH,8647,4400,4247,3.1,7.2,34.32,0.1,405.5,52.76,0500000US02220,57.24007686,-135.31525108,SITKA CITY AND
2240,Alaska,SOUTHEAST FAIRBANKS CENSUS AREA,6918,3815,3103,0.3,8.6,35.93,0.09,472.2,42.57,0500000US02240,63.87633683,-143.21239361,SOUTHEAST FAIRBANKS CENSUS
2261,Alaska,VALDEZ-CORDOVA CENSUS AREA,9164,4803,4361,0.3,10.1,34.86,0.08,394.5,51.66,0500000US02261,61.56195424,-144.46862429,VALDEZ-CORDOVA CENSUS
2282,Alaska,YAKUTAT CITY AND BOROUGH,604,335,269,0.1,6.4,38.57,0.13,-1.0,38.57,0500000US02282,59.88873149,-140.35687143,YAKUTAT CITY AND
2290,Alaska,YUKON-KOYUKUK CENSUS AREA,5327,2822,2505,0.0,8.1,37.2,0.09,588.5,61.13,0500000US02290,65.50865062,-151.38960348,YUKON-KOYUKUK CENSUS
4001,Arizona,APACHE COUNTY,71818,35310,36508,6.4,15.4,39.59,0.1,285.0,50.32,0500000US04001,35.39552572,-109.48882175,APACHE
4003,Arizona,COCHISE COUNTY,126770,64380,62390,21.3,8.4,37.52,0.16,511.8,49.23,0500000US04003,31.87960857,-109.75116586,COCHISE
4005,Arizona,COCONINO COUNTY,142854,70580,72274,7.2,7.7,33.17,0.08,333.2,46.49,0500000US04005,35.83873698,-111.77050272,COCONINO
4007,Arizona,GILA COUNTY,53889,26644,27245,11.3,12.0,37.3,0.2,560.5,69.64,0500000US04007,33.79974714,-110.81170624,GILA
4009,Arizona,GRAHAM COUNTY,38072,20283,17789,8.1,9.6,38.8,0.1,396.8,57.24,0500000US04009,32.93269913,-109.88740131,GRAHAM
4011,Arizona,GREENLEE COUNTY,9483,4871,4612,4.6,11.3,36.7,0.09,379.5,55.05,0500000US04011,33.21521776,-109.24013732,GREENLEE
4012,Arizona,LA PAZ COUNTY,21098,10820,10278,4.6,9.5,38.53,0.31,612.0,45.08,0500000US04012,33.72924445,-113.98132371,LA PAZ
4013,Arizona,MARICOPA COUNTY,4410824,2181718,2229106,414.9,8.2,34.74,0.1,424.2,51.21,0500000US04013,33.348812,-112.49129972,MARICOPA
4015,Arizona,MOHAVE COUNTY,209550,105979,103571,15.0,10.1,37.11,0.21,777.5,71.97,0500000US04015,35.70409706,-113.75795437,MOHAVE
4017,Arizona,NAVAJO COUNTY,110445,55281,55164,10.8,13.6,38.39,0.12,382.2,50.93,0500000US04017,35.39965757,-110.32140053,NAVAJO
4019,Arizona,PIMA COUNTY,1039073,511456,527617,106.7,7.2,35.98,0.14,485.0,49.95,0500000US04019,32.09742147,-111.78989225,PIMA
4021,Arizona,PINAL COUNTY,447138,232917,214221,70.0,11.3,38.34,0.14,445.5,50.29,0500000US04021,32.90439097,-111.34466967,PINAL
4023,Arizona,SANTA CRUZ COUNTY,46511,22473,24038,38.3,6.5,36.36,0.12,356.5,30.18,0500000US04023,31.5260274,-110.84656875,SANTA CRUZ
4025,Arizona,YAVAPAI COUNTY,231993,113321,118672,26.0,7.2,34.03,0.22,725.0,56.87,0500000US04025,34.59989747,-112.55390145,YAVAPAI
4027,Arizona,YUMA COUNTY,212128,109306,102822,35.5,12.9,37.84,0.14,409.0,45.08,0500000US04027,32.76937661,-113.90555556,YUMA
5001,Arkansas,ARKANSAS COUNTY,17769,8593,9176,19.2,17.3,42.02,0.13,652.5,76.38,0500000US05001,34.290804,-91.37491121,ARKANSAS
5003,Arkansas,ASHLEY COUNTY,20046,9771,10275,23.6,12.6,43.36,0.14,678.5,61.73,0500000US05003,33.19121112,-91.76845808,ASHLEY
5005,Arkansas,BAXTER COUNTY,41619,20096,21523,74.9,13.1,38.33,0.23,880.0,66.59,0500000US05005,36.2872084,-92.33695012,BAXTER
5007,Arkansas,BENTON COUNTY,272608,135582,137026,261.2,8.6,36.73,0.09,452.8,53.33,0500000US05007,36.33872372,-94.25619859,BENTON
5009,Arkansas,BOONE COUNTY,37480,18443,19037,62.5,12.2,37.78,0.15,647.0,62.68,0500000US05009,36.30859146,-93.09153327,BOONE
5011,Arkansas,BRADLEY COUNTY,10897,5306,5591,17.7,14.0,43.16,0.13,675.5,54.95,0500000US05011,33.46642274,-92.16239024,BRADLEY
5013,Arkansas,CALHOUN COUNTY,5277,2662,2615,8.5,14.6,43.87,0.14,784.5,69.00,0500000US05013,33.55803088,-92.5030439,CALHOUN
5015,Arkansas,CARROLL COUNTY,28223,14047,14176,43.6,6.3,37.66,0.15,633.0,57.92,0500000US05015,36.34101849,-93.53823949,CARROLL
5017,Arkansas,CHICOT COUNTY,10438,5272,5166,18.3,7.7,48.3,0.14,626.0,57.51,0500000US05017,33.26720943,-91.29397816,CHICOT
5019,Arkansas,CLARK COUNTY,22061,10452,11609,26.6,14.0,41.61,0.12,561.5,62.40,0500000US05019,34.05097571,-93.1763707,CLARK
5021,Arkansas,CLAY COUNTY,14847,7255,7592,25.2,12.9,41.58,0.16,748.0,72.78,0500000US05021,36.36826349,-90.41754932,CLAY
5023,Arkansas,CLEBURNE COUNTY,24965,12277,12688,46.9,8.4,39.16,0.2,803.0,70.59,0500000US05023,35.53810467,-92.02672672,CLEBURNE
5025,Arkansas,CLEVELAND COUNTY,8018,3978,4040,14.5,14.6,41.25,0.14,684.5,72.47,0500000US05025,33.89836812,-92.18518422,CLEVELAND
5027,Arkansas,COLUMBIA COUNTY,23537,11352,12185,32.1,14.9,44.5,0.12,481.2,68.11,0500000US05027,33.21429832,-93.22731371,COLUMBIA
5029,Arkansas,CONWAY COUNTY,20891,10260,10631,38.5,16.3,41.05,0.14,565.0,64.45,0500000US05029,35.26223625,-92.70129797,CONWAY
5031,Arkansas,CRAIGHEAD COUNTY,108558,52730,55828,136.4,13.6,39.26,0.09,484.5,79.35,0500000US05031,35.83078965,-90.63282816,CRAIGHEAD
5033,Arkansas,CRAWFORD COUNTY,63406,31258,32148,104.4,13.2,41.35,0.11,547.5,78.26,0500000US05033,35.58908577,-94.24282108,CRAWFORD
5035,Arkansas,CRITTENDEN COUNTY,48342,23011,25331,83.5,18.6,47.77,0.09,446.0,80.99,0500000US05035,35.20794251,-90.30883792,CRITTENDEN
5037,Arkansas,CROSS COUNTY,16676,8044,8632,29.0,14.8,43.66,0.13,608.0,94.30,0500000US05037,35.29570939,-90.77121624,CROSS
5039,Arkansas,DALLAS COUNTY,7182,3549,3633,12.2,5.7,45.33,0.16,743.0,67.54,0500000US05039,33.96981096,-92.65444501,DALLAS
5041,Arkansas,DESHA COUNTY,11512,5437,6075,16.9,11.5,46.69,0.13,559.5,50.53,0500000US05041,33.83330039,-91.25396893,DESHA
5043,Arkansas,DREW COUNTY,18328,8955,9373,22.3,18.0,42.51,0.12,540.0,61.22,0500000US05043,33.58944888,-91.71999604,DREW
5045,Arkansas,FAULKNER COUNTY,124806,60992,63814,174.8,9.8,37.7,0.08,450.5,67.91,0500000US05045,35.1469834,-92.33204457,FAULKNER
5047,Arkansas,FRANKLIN COUNTY,17810,8908,8902,29.8,11.1,40.89,0.13,567.0,85.96,0500000US05047,35.51232031,-93.89063698,FRANKLIN
5049,Arkansas,FULTON COUNTY,12269,6021,6248,19.8,10.4,40.86,0.18,695.0,78.67,0500000US05049,36.38165736,-91.81822566,FULTON
5051,Arkansas,GARLAND COUNTY,99154,47660,51494,141.7,12.8,39.24,0.17,746.5,76.90,0500000US05051,34.57666758,-93.15041042,GARLAND
5053,Arkansas,GRANT COUNTY,18188,8985,9203,28.3,14.7,39.59,0.13,655.0,78.28,0500000US05053,34.28999814,-92.42361062,GRANT
5055,Arkansas,GREENE COUNTY,45325,22289,23036,72.9,13.2,39.98,0.11,533.0,107.64,0500000US05055,36.1175667,-90.55897666,GREENE
5057,Arkansas,HEMPSTEAD COUNTY,21741,10482,11259,31.1,16.4,44.9,0.13,483.5,57.19,0500000US05057,33.73532157,-93.66847462,HEMPSTEAD
5059,Arkansas,HOT SPRING COUNTY,33701,17643,16058,53.5,15.7,40.61,0.13,577.5,77.29,0500000US05059,34.317623,-92.94594787,HOT SPRING
5061,Arkansas,HOWARD COUNTY,13341,6417,6924,23.4,10.9,41.91,0.13,516.5,70.85,0500000US05061,34.08890924,-93.99356902,HOWARD
5063,Arkansas,INDEPENDENCE COUNTY,37678,18371,19307,48.0,12.3,39.82,0.12,587.0,70.12,0500000US05063,35.74157324,-91.56970808,INDEPENDENCE
5065,Arkansas,IZARD COUNTY,13593,7050,6543,23.6,9.9,40.0,0.19,648.0,72.61,0500000US05065,36.09487013,-91.91340542,IZARD
5067,Arkansas,JACKSON COUNTY,16811,8348,8463,28.4,22.8,43.57,0.12,626.0,91.10,0500000US05067,35.59922955,-91.21457029,JACKSON
5069,Arkansas,JEFFERSON COUNTY,68114,33662,34452,88.9,14.0,46.27,0.12,599.5,57.05,0500000US05069,34.26878667,-91.93151493,JEFFERSON
5071,Arkansas,JOHNSON COUNTY,26742,13264,13478,38.7,11.5,39.4,0.11,522.5,72.84,0500000US05071,35.57006611,-93.45989602,JOHNSON
5073,Arkansas,LAFAYETTE COUNTY,6682,3283,3399,14.5,26.6,46.16,0.18,561.0,65.22,0500000US05073,33.24094545,-93.60705581,LAFAYETTE
5075,Arkansas,LAWRENCE COUNTY,16434,8112,8322,29.6,7.5,42.53,0.14,680.0,93.36,0500000US05075,36.041228,-91.10709645,LAWRENCE
5077,Arkansas,LEE COUNTY,8985,5049,3936,17.3,14.9,52.23,0.14,607.0,58.31,0500000US05077,34.78064922,-90.78212174,LEE
5079,Arkansas,LINCOLN COUNTY,13383,8273,5110,25.2,15.0,47.36,0.11,421.8,59.43,0500000US05079,33.95744904,-91.73332986,LINCOLN
5081,Arkansas,LITTLE RIVER COUNTY,12326,5936,6390,24.7,18.6,42.14,0.14,617.0,72.53,0500000US05081,33.70051033,-94.23434595,LITTLE RIVER
5083,Arkansas,LOGAN COUNTY,21737,10852,10885,31.6,15.8,41.57,0.14,611.5,70.03,0500000US05083,35.21527184,-93.71632455,LOGAN
5085,Arkansas,LONOKE COUNTY,73657,36302,37355,88.7,12.1,40.4,0.09,526.0,77.36,0500000US05085,34.75426979,-91.88867026,LONOKE
5087,Arkansas,MADISON COUNTY,16481,8229,8252,18.8,10.1,40.09,0.13,546.0,69.90,0500000US05087,36.01095376,-93.72455211,MADISON
5089,Arkansas,MARION COUNTY,16722,8209,8513,27.9,13.2,39.52,0.19,852.0,64.67,0500000US05089,36.26838614,-92.68422483,MARION
5091,Arkansas,MILLER COUNTY,43592,21411,22181,69.5,10.8,42.91,0.12,499.8,69.21,0500000US05091,33.31209127,-93.89155288,MILLER
5093,Arkansas,MISSISSIPPI COUNTY,41239,20077,21162,51.6,16.1,45.08,0.1,502.5,91.03,0500000US05093,35.7638336,-90.05420095,MISSISSIPPI
5095,Arkansas,MONROE COUNTY,6900,3209,3691,13.4,14.2,47.5,0.16,787.0,60.06,0500000US05095,34.67783167,-91.20389208,MONROE
5097,Arkansas,MONTGOMERY COUNTY,8924,4414,4510,12.2,14.7,40.94,0.19,665.0,77.61,0500000US05097,34.53881078,-93.65952869,MONTGOMERY
5099,Arkansas,NEVADA COUNTY,8326,4126,4200,14.6,11.6,44.45,0.14,608.5,68.20,0500000US05099,33.6639667,-93.3071981,NEVADA
5101,Arkansas,NEWTON COUNTY,7805,3954,3851,10.1,7.8,40.49,0.18,546.5,54.58,0500000US05101,35.91997058,-93.21786835,NEWTON
5103,Arkansas,OUACHITA COUNTY,23606,11196,12410,35.6,12.4,45.77,0.14,684.5,68.89,0500000US05103,33.59334965,-92.88194326,OUACHITA
5105,Arkansas,PERRY COUNTY,10352,5113,5239,18.9,12.5,40.59,0.14,684.5,81.22,0500000US05105,34.9473644,-92.93145694,PERRY
5107,Arkansas,PHILLIPS COUNTY,18029,8476,9553,31.3,16.3,49.84,0.13,570.5,80.14,0500000US05107,34.42826041,-90.84804738,PHILLIPS
5109,Arkansas,PIKE COUNTY,10673,5336,5337,18.8,12.1,39.89,0.14,604.0,92.30,0500000US05109,34.16351818,-93.65632903,PIKE
5111,Arkansas,POINSETT COUNTY,23974,11646,12328,32.4,19.1,44.18,0.12,697.5,111.49,0500000US05111,35.57401781,-90.66298802,POINSETT
5113,Arkansas,POLK COUNTY,20049,9767,10282,24.1,10.3,40.36,0.16,633.5,93.83,0500000US05113,34.4859135,-94.228094,POLK
5115,Arkansas,POPE COUNTY,64000,31721,32279,76.0,10.1,38.22,0.11,490.0,79.44,0500000US05115,35.44762692,-93.03415281,POPE
5117,Arkansas,PRAIRIE COUNTY,8074,4063,4011,13.4,11.8,42.16,0.17,749.0,71.90,0500000US05117,34.82978362,-91.55278075,PRAIRIE
5119,Arkansas,PULASKI COUNTY,392680,187731,204949,503.8,11.0,40.38,0.1,535.0,56.71,0500000US05119,34.76994261,-92.3117991,PULASKI
5121,Arkansas,RANDOLPH COUNTY,17948,8874,9074,27.6,16.4,40.49,0.14,666.0,76.81,0500000US05121,36.34145973,-91.02770772,RANDOLPH
5123,Arkansas,ST. FRANCIS COUNTY,25439,14023,11416,44.5,17.1,48.31,0.11,451.8,73.06,0500000US05123,35.02200791,-90.74777066,ST. FRANCIS
5125,Arkansas,SALINE COUNTY,121421,59489,61932,148.0,11.0,37.92,0.12,587.0,61.41,0500000US05125,34.64658116,-92.67651697,SALINE
5127,Arkansas,SCOTT COUNTY,10319,5236,5083,12.6,15.6,41.6,0.15,566.5,61.96,0500000US05127,34.860775,-94.06323846,SCOTT
5129,Arkansas,SEARCY COUNTY,7958,3988,3970,12.3,13.0,41.07,0.18,725.5,62.11,0500000US05129,35.91090159,-92.69950883,SEARCY
5131,Arkansas,SEBASTIAN COUNTY,127753,62418,65335,236.4,11.1,40.08,0.11,518.5,72.14,0500000US05131,35.19966008,-94.2741784,SEBASTIAN
5133,Arkansas,SEVIER COUNTY,17139,8622,8517,30.2,13.2,40.72,0.1,342.8,90.20,0500000US05133,33.9971742,-94.24117963,SEVIER
5135,Arkansas,SHARP COUNTY,17366,8570,8796,28.6,16.4,40.97,0.19,741.5,72.64,0500000US05135,36.16114238,-91.47985741,SHARP
5137,Arkansas,STONE COUNTY,12457,6135,6322,20.4,17.8,40.19,0.2,725.0,81.21,0500000US05137,35.8598794,-92.15670383,STONE
5139,Arkansas,UNION COUNTY,39126,19038,20088,40.1,11.7,43.34,0.12,622.0,83.33,0500000US05139,33.17129973,-92.59726481,UNION
5141,Arkansas,VAN BUREN COUNTY,16603,8255,8348,24.4,12.5,39.36,0.19,847.0,70.75,0500000US05141,35.58064573,-92.51568697,VAN BUREN
5143,Arkansas,WASHINGTON COUNTY,236961,118335,118626,215.6,9.3,37.7,0.08,421.2,63.34,0500000US05143,35.97906244,-94.21557479,WASHINGTON
5145,Arkansas,WHITE COUNTY,78727,38321,40406,74.5,12.3,39.75,0.11,578.0,78.72,0500000US05145,35.25627051,-91.74555663,WHITE
5147,Arkansas,WOODRUFF COUNTY,6490,3121,3369,12.4,24.7,45.59,0.16,836.5,87.06,0500000US05147,35.18632732,-91.243057,WOODRUFF
5149,Arkansas,YELL COUNTY,21535,10811,10724,23.9,12.3,39.3,0.12,581.0,84.88,0500000US05149,35.00260325,-93.41123882,YELL
6001,California,ALAMEDA COUNTY,1666753,820045,846708,2043.6,6.7,35.5,0.09,416.8,36.12,0500000US06001,37.64689538,-121.88886979,ALAMEDA
6003,California,ALPINE COUNTY,1101,588,513,1.6,4.6,36.67,0.15,420.8,42.85,0500000US06003,38.59719573,-119.82066773,ALPINE
6005,California,AMADOR COUNTY,39383,21425,17958,64.1,10.4,37.43,0.18,746.5,48.36,0500000US06005,38.44639205,-120.65109011,AMADOR
6007,California,BUTTE COUNTY,231256,114342,116914,134.4,8.7,37.02,0.12,585.0,64.86,0500000US06007,39.66693661,-121.60068165,BUTTE
6009,California,CALAVERAS COUNTY,45602,22697,22905,44.7,8.3,37.48,0.18,689.0,49.62,0500000US06009,38.204594,-120.55412862,CALAVERAS
6011,California,COLUSA COUNTY,21627,11046,10581,18.6,20.1,36.94,0.1,409.5,55.28,0500000US06011,39.17748765,-122.23696191,COLUSA
6013,California,CONTRA COSTA COUNTY,1150215,562483,587732,1465.2,7.8,34.83,0.11,489.0,40.34,0500000US06013,37.91912294,-121.92778621,CONTRA COSTA
6015,California,DEL NORTE COUNTY,27828,15188,12640,28.4,8.9,38.94,0.12,508.2,75.02,0500000US06015,41.74313577,-123.89725648,DEL NORTE
6017,California,EL DORADO COUNTY,190678,95091,95587,106.0,6.2,35.08,0.14,614.0,46.03,0500000US06017,38.77873616,-120.52465902,EL DORADO
6019,California,FRESNO COUNTY,994400,496016,498384,156.2,10.7,37.88,0.08,367.8,46.22,0500000US06019,36.75819677,-119.64930237,FRESNO
6021,California,GLENN COUNTY,28047,14235,13812,21.4,8.5,38.42,0.11,541.5,65.66,0500000US06021,39.59820191,-122.39199837,GLENN
6023,California,HUMBOLDT COUNTY,136373,67913,68460,37.7,7.9,36.53,0.11,529.0,70.47,0500000US06023,40.6992974,-123.87562908,HUMBOLDT
6025,California,IMPERIAL COUNTY,181827,93235,88592,41.8,9.0,37.22,0.09,374.5,32.49,0500000US06025,33.03951207,-115.36535115,IMPERIAL
6027,California,INYO COUNTY,17987,9044,8943,1.8,6.9,36.68,0.16,662.5,58.60,0500000US06027,36.51111219,-117.41074593,INYO
6029,California,KERN COUNTY,896764,459690,437074,103.3,9.5,38.72,0.07,347.2,72.71,0500000US06029,35.3428649,-118.7299165,KERN
6031,California,KINGS COUNTY,151366,83196,68170,110.1,11.1,38.29,0.07,310.0,57.59,0500000US06031,36.07534371,-119.81555066,KINGS
6033,California,LAKE COUNTY,64382,32140,32242,51.5,9.8,40.01,0.15,641.5,81.48,0500000US06033,39.09961744,-122.75318837,LAKE
6035,California,LASSEN COUNTY,30802,19155,11647,7.7,19.4,38.38,0.1,405.5,64.91,0500000US06035,40.67358908,-120.59431537,LASSEN
6037,California,LOS ANGELES COUNTY,10105518,4981895,5123623,2419.6,8.1,36.68,0.09,392.0,34.94,0500000US06037,34.32075098,-118.22481684,LOS ANGELES
6039,California,MADERA COUNTY,157672,76008,81664,70.6,11.6,38.53,0.09,402.0,50.04,0500000US06039,37.21799161,-119.76267308,MADERA
6041,California,MARIN COUNTY,259666,126989,132677,485.1,3.8,30.2,0.15,633.5,27.66,0500000US06041,38.07338593,-122.72341501,MARIN
6043,California,MARIPOSA COUNTY,17471,8904,8567,12.6,4.8,36.49,0.19,652.5,48.62,0500000US06043,37.58150762,-119.90542515,MARIPOSA
6045,California,MENDOCINO COUNTY,87606,43403,44203,25.1,5.8,36.98,0.14,589.0,58.59,0500000US06045,39.44022717,-123.39147246,MENDOCINO
6047,California,MERCED COUNTY,274765,138632,136133,132.2,14.2,39.28,0.08,344.8,53.48,0500000US06047,37.19188647,-120.71765856,MERCED
6049,California,MODOC COUNTY,8777,4386,4391,2.5,15.4,38.67,0.18,649.5,77.17,0500000US06049,41.58984688,-120.72494574,MODOC
6051,California,MONO COUNTY,14250,7571,6679,4.7,5.1,35.08,0.1,351.0,31.52,0500000US06051,37.93908596,-118.88684056,MONO
6053,California,MONTEREY COUNTY,435594,221787,213807,126.5,8.0,36.19,0.09,389.8,37.60,0500000US06053,36.21715688,-121.23920216,MONTEREY
6055,California,NAPA COUNTY,139417,69392,70025,182.4,7.2,34.47,0.13,571.0,44.85,0500000US06055,38.50648512,-122.33051806,NAPA
6057,California,NEVADA COUNTY,99696,48920,50776,103.1,4.1,35.11,0.18,662.5,47.09,0500000US06057,39.3013703,-120.76844829,NEVADA
6059,California,ORANGE COUNTY,3185968,1572801,1613167,3807.7,7.8,33.96,0.1,435.5,35.15,0500000US06059,33.7029736,-117.76107748,ORANGE
6061,California,PLACER COUNTY,393149,192147,201002,247.6,5.2,33.73,0.14,605.0,42.85,0500000US06061,39.06346302,-120.71754978,PLACER
6063,California,PLUMAS COUNTY,18804,9360,9444,7.8,7.8,35.73,0.18,699.0,71.37,0500000US06063,40.00463326,-120.83853691,PLUMAS
6065,California,RIVERSIDE COUNTY,2450758,1221375,1229383,303.8,8.7,37.74,0.1,421.8,50.72,0500000US06065,33.74365323,-115.99385257,RIVERSIDE
6067,California,SACRAMENTO COUNTY,1540975,752972,788003,1470.8,8.9,37.45,0.09,457.0,49.15,0500000US06067,38.44931315,-121.34424249,SACRAMENTO
6069,California,SAN BENITO COUNTY,61537,30843,30694,39.8,8.4,36.84,0.08,403.8,39.84,0500000US06069,36.60568145,-121.07496715,SAN BENITO
6071,California,SAN BERNARDINO COUNTY,2171603,1080950,1090653,101.5,9.4,37.13,0.08,371.2,63.24,0500000US06071,34.84139244,-116.17839378,SAN BERNARDINO
6073,California,SAN DIEGO COUNTY,3343364,1682449,1660915,735.8,6.9,33.94,0.09,431.0,38.91,0500000US06073,33.03413649,-116.7352929,SAN DIEGO
6075,California,SAN FRANCISCO COUNTY,883305,450363,432942,17179.2,6.7,34.33,0.11,472.5,25.69,0500000US06075,37.75616437,-122.44304168,SAN FRANCISCO
6077,California,SAN JOAQUIN COUNTY,752660,375136,377524,492.6,10.0,37.13,0.08,404.8,57.98,0500000US06077,37.93475525,-121.27139131,SAN JOAQUIN
6079,California,SAN LUIS OBISPO COUNTY,284010,144092,139918,81.7,6.9,36.4,0.13,566.0,44.23,0500000US06079,35.3870822,-120.40451465,SAN LUIS OBISPO
6081,California,SAN MATEO COUNTY,769545,380308,389237,1602.2,6.8,33.14,0.11,487.5,30.47,0500000US06081,37.42289293,-122.32901017,SAN MATEO
6083,California,SANTA BARBARA COUNTY,446527,223377,223150,155.0,8.2,34.28,0.11,464.2,36.34,0500000US06083,34.67288042,-120.01646908,SANTA BARBARA
6085,California,SANTA CLARA COUNTY,1937570,980868,956702,1381.0,7.3,32.62,0.09,404.0,29.68,0500000US06085,37.23178765,-121.69512942,SANTA CLARA
6087,California,SANTA CRUZ COUNTY,274255,135725,138530,589.4,6.2,33.76,0.1,483.5,39.95,0500000US06087,37.05617977,-122.00183871,SANTA CRUZ
6089,California,SHASTA COUNTY,180040,88367,91673,46.9,9.0,37.77,0.14,682.0,84.23,0500000US06089,40.76371318,-122.04049894,SHASTA
6091,California,SIERRA COUNTY,2987,1511,1476,3.4,4.5,36.96,0.2,592.0,52.96,0500000US06091,39.5803242,-120.51600957,SIERRA
6093,California,SISKIYOU COUNTY,43724,21731,21993,7.2,10.3,37.34,0.17,622.0,67.66,0500000US06093,41.59263982,-122.54036454,SISKIYOU
6095,California,SOLANO COUNTY,446610,221997,224613,503.0,9.2,37.3,0.1,484.0,50.48,0500000US06095,38.26997216,-121.93285299,SOLANO
6097,California,SONOMA COUNTY,499942,244124,255818,307.1,6.0,34.04,0.13,560.0,42.21,0500000US06097,38.52828755,-122.88740974,SONOMA
6099,California,STANISLAUS COUNTY,549815,272316,277499,344.2,10.9,37.85,0.09,413.5,54.93,0500000US06099,37.55913221,-120.99768934,STANISLAUS
6101,California,SUTTER COUNTY,96807,48222,48585,157.3,9.3,37.44,0.11,434.5,60.90,0500000US06101,39.03454568,-121.69483839,SUTTER
6103,California,TEHAMA COUNTY,63916,31743,32173,21.5,8.0,38.72,0.13,634.5,76.43,0500000US06103,40.1256263,-122.23405773,TEHAMA
6105,California,TRINITY COUNTY,12535,6442,6093,4.3,5.3,38.08,0.17,696.0,66.33,0500000US06105,40.65070279,-123.11263773,TRINITY
6107,California,TULARE COUNTY,465861,233078,232783,91.7,9.3,37.79,0.08,326.5,56.06,0500000US06107,36.22015636,-118.80048447,TULARE
6109,California,TUOLUMNE COUNTY,54539,28296,26243,24.9,7.3,38.0,0.18,659.5,51.78,0500000US06109,38.0275883,-119.95475538,TUOLUMNE
6111,California,VENTURA COUNTY,850967,421319,429648,446.7,8.3,34.96,0.11,456.8,39.41,0500000US06111,34.45650398,-119.08362848,VENTURA
6113,California,YOLO COUNTY,220408,106746,113662,197.9,6.5,35.44,0.08,378.5,57.00,0500000US06113,38.6866086,-121.90157073,YOLO
6115,California,YUBA COUNTY,78041,39503,38538,114.2,11.6,40.11,0.08,431.0,88.79,0500000US06115,39.26900797,-121.35126501,YUBA
8001,Colorado,ADAMS COUNTY,511868,258470,253398,378.2,8.0,33.81,0.07,351.0,57.93,0500000US08001,39.87363204,-104.33776924,ADAMS
8003,Colorado,ALAMOSA COUNTY,16683,8361,8322,21.4,6.2,35.22,0.09,361.8,88.03,0500000US08003,37.57292362,-105.7883222,ALAMOSA
8005,Colorado,ARAPAHOE COUNTY,651215,322713,328502,716.7,6.8,33.33,0.08,408.8,57.93,0500000US08005,39.64975746,-104.33923608,ARAPAHOE
8007,Colorado,ARCHULETA COUNTY,13765,6898,6867,8.9,3.0,34.16,0.16,503.5,44.94,0500000US08007,37.19353673,-107.0482875,ARCHULETA
8009,Colorado,BACA COUNTY,3585,1800,1785,1.5,11.7,38.19,0.18,542.5,61.84,0500000US08009,37.31919092,-102.56037556,BACA
8011,Colorado,BENT COUNTY,5882,3848,2034,4.3,6.8,39.88,0.12,453.2,126.75,0500000US08011,37.95509291,-103.07169532,BENT
8013,Colorado,BOULDER COUNTY,326078,164069,162009,405.6,4.6,33.81,0.09,395.5,57.93,0500000US08013,40.09248605,-105.35773018,BOULDER
8014,Colorado,BROOMFIELD COUNTY,69267,34441,34826,1691.9,6.5,33.82,0.09,406.8,57.93,0500000US08014,39.95411779,-105.05267931,BROOMFIELD
8015,Colorado,CHAFFEE COUNTY,20027,10582,9445,17.6,5.2,34.87,0.16,636.0,46.99,0500000US08015,38.74702708,-106.1941388,CHAFFEE
8017,Colorado,CHEYENNE COUNTY,1876,954,922,1.0,10.0,38.32,0.13,532.0,85.14,0500000US08017,38.82795168,-102.60351125,CHEYENNE
8019,Colorado,CLEAR CREEK COUNTY,9605,5067,4538,23.0,5.2,33.64,0.12,579.5,48.82,0500000US08019,39.68917978,-105.64440234,CLEAR CREEK
8021,Colorado,CONEJOS COUNTY,8200,4117,4083,6.4,6.3,36.36,0.13,367.8,60.36,0500000US08021,37.2007064,-106.191598,CONEJOS
8023,Colorado,COSTILLA COUNTY,3828,1982,1846,2.9,9.9,37.8,0.19,506.8,44.64,0500000US08023,37.27809699,-105.42822103,COSTILLA
8025,Colorado,CROWLEY COUNTY,5858,4286,1572,7.4,5.6,44.5,0.09,327.2,112.53,0500000US08025,38.32658485,-103.78447088,CROWLEY
8027,Colorado,CUSTER COUNTY,4954,2555,2399,5.8,4.2,36.43,0.18,850.5,44.30,0500000US08027,38.10869123,-105.36752805,CUSTER
8029,Colorado,DELTA COUNTY,30953,15501,15452,27.1,7.0,35.7,0.18,590.0,60.61,0500000US08029,38.86135965,-107.86289031,DELTA
8031,Colorado,DENVER COUNTY,716492,359590,356902,3922.6,5.7,35.48,0.08,395.2,57.93,0500000US08031,39.76212662,-104.87589312,DENVER
8033,Colorado,DOLORES COUNTY,2074,1090,984,1.9,3.9,37.37,0.17,407.5,74.39,0500000US08033,37.7517059,-108.51738042,DOLORES
8035,Colorado,DOUGLAS COUNTY,342776,171127,171649,339.7,4.6,28.58,0.08,364.8,35.91,0500000US08035,39.32970607,-104.92956362,DOUGLAS
8037,Colorado,EAGLE COUNTY,54993,29160,25833,31.0,2.6,27.9,0.07,300.2,24.49,0500000US08037,39.62784556,-106.69536645,EAGLE
8039,Colorado,ELBERT COUNTY,26282,13278,13004,12.5,4.8,33.25,0.1,459.5,53.79,0500000US08039,39.28657631,-104.1359634,ELBERT
8041,Colorado,EL PASO COUNTY,713856,360720,353136,292.6,6.5,34.85,0.08,422.8,58.05,0500000US08041,38.83209015,-104.52545861,EL PASO
8043,Colorado,FREMONT COUNTY,48021,27722,20299,30.5,6.6,38.31,0.15,628.5,76.41,0500000US08043,38.47296044,-105.43966641,FREMONT
8045,Colorado,GARFIELD COUNTY,59770,30533,29237,19.1,4.2,33.66,0.08,406.2,55.09,0500000US08045,39.59932228,-107.90406845,GARFIELD
8047,Colorado,GILPIN COUNTY,6121,3212,2909,36.3,4.3,34.32,0.09,454.8,47.06,0500000US08047,39.85756156,-105.5225166,GILPIN
8049,Colorado,GRAND COUNTY,15525,8319,7206,8.0,3.9,31.86,0.1,358.2,34.63,0500000US08049,40.1026308,-106.11833049,GRAND
8051,Colorado,GUNNISON COUNTY,17246,9300,7946,4.7,2.5,30.64,0.08,344.5,49.27,0500000US08051,38.66676796,-107.03162257,GUNNISON
8053,Colorado,HINSDALE COUNTY,811,418,393,0.8,3.2,32.92,0.21,458.0,32.98,0500000US08053,37.8212848,-107.30030191,HINSDALE
8055,Colorado,HUERFANO COUNTY,6889,3513,3376,4.2,5.1,37.94,0.21,688.5,79.66,0500000US08055,37.68467832,-104.96061166,HUERFANO
8057,Colorado,JACKSON COUNTY,1399,724,675,0.9,6.7,35.98,0.14,399.5,46.06,0500000US08057,40.66644568,-106.34279005,JACKSON
8059,Colorado,JEFFERSON COUNTY,580233,289294,290939,699.5,5.1,33.82,0.11,493.2,57.93,0500000US08059,39.58643599,-105.25046927,JEFFERSON
8061,Colorado,KIOWA COUNTY,1383,673,710,0.8,6.9,38.7,0.16,723.5,94.22,0500000US08061,38.43267565,-102.74024847,KIOWA
8063,Colorado,KIT CARSON COUNTY,7163,3582,3581,3.8,7.6,37.9,0.14,471.0,78.56,0500000US08063,39.30549721,-102.60296547,KIT CARSON
8065,Colorado,LAKE COUNTY,7824,4207,3617,19.4,7.2,34.01,0.08,306.5,51.46,0500000US08065,39.20249231,-106.34477125,LAKE
8067,Colorado,LA PLATA COUNTY,56310,28411,27899,30.3,4.4,31.31,0.1,410.0,46.87,0500000US08067,37.28655414,-107.8433296,LA PLATA
8069,Colorado,LARIMER COUNTY,350518,174991,175527,115.4,4.7,32.39,0.1,436.8,45.19,0500000US08069,40.66638618,-105.46114559,LARIMER
8071,Colorado,LAS ANIMAS COUNTY,14503,7572,6931,3.2,7.7,37.06,0.16,554.0,57.77,0500000US08071,37.31578856,-104.03864231,LAS ANIMAS
8073,Colorado,LINCOLN COUNTY,5610,3277,2333,2.1,7.9,36.16,0.13,469.2,72.44,0500000US08073,38.98808301,-103.51396003,LINCOLN
8075,Colorado,LOGAN COUNTY,21528,12030,9498,12.4,10.0,38.49,0.12,472.5,63.53,0500000US08075,40.7246731,-103.11012512,LOGAN
8077,Colorado,MESA COUNTY,153207,75720,77487,44.1,7.0,35.06,0.13,517.5,75.87,0500000US08077,39.01830189,-108.46644277,MESA
8079,Colorado,MINERAL COUNTY,776,385,391,0.8,3.7,32.62,0.19,766.5,54.87,0500000US08079,37.66894229,-106.92412193,MINERAL
8081,Colorado,MOFFAT COUNTY,13188,6763,6425,2.9,7.2,36.9,0.1,448.8,80.30,0500000US08081,40.61838524,-108.20743243,MOFFAT
8083,Colorado,MONTEZUMA COUNTY,26158,12901,13257,12.6,10.1,35.22,0.14,483.8,89.63,0500000US08083,37.33856249,-108.59657713,MONTEZUMA
8085,Colorado,MONTROSE COUNTY,42214,20815,21399,18.4,5.7,35.57,0.16,551.5,64.10,0500000US08085,38.40218308,-108.26933845,MONTROSE
8087,Colorado,MORGAN COUNTY,28558,14410,14148,22.0,9.1,35.91,0.11,433.0,65.04,0500000US08087,40.26263928,-103.80974278,MORGAN
8089,Colorado,OTERO COUNTY,18432,9025,9407,14.9,9.6,38.14,0.14,514.5,122.10,0500000US08089,37.90258547,-103.7164574,OTERO
8091,Colorado,OURAY COUNTY,4833,2446,2387,8.2,4.6,33.49,0.16,622.5,35.98,0500000US08091,38.15546514,-107.7692713,OURAY
8093,Colorado,PARK COUNTY,18556,9768,8788,7.4,3.1,33.18,0.11,453.8,36.95,0500000US08093,39.11931598,-105.7171103,PARK
8095,Colorado,PHILLIPS COUNTY,4286,2115,2171,6.5,9.6,34.73,0.17,602.5,55.50,0500000US08095,40.59396953,-102.35760391,PHILLIPS
8097,Colorado,PITKIN COUNTY,17950,9289,8661,17.7,1.5,28.14,0.12,424.5,18.39,0500000US08097,39.21707872,-106.91658113,PITKIN
8099,Colorado,PROWERS COUNTY,12164,6113,6051,7.7,10.8,39.79,0.12,475.5,102.77,0500000US08099,37.95519537,-102.39335975,PROWERS
8101,Colorado,PUEBLO COUNTY,167529,82556,84973,66.7,8.1,35.84,0.12,526.5,81.37,0500000US08101,38.17349909,-104.51272113,PUEBLO
8103,Colorado,RIO BLANCO COUNTY,6336,3237,3099,2.1,3.3,34.54,0.11,440.2,69.53,0500000US08103,39.97987068,-108.21705964,RIO BLANCO
8105,Colorado,RIO GRANDE COUNTY,11250,5624,5626,13.1,6.2,34.66,0.13,452.2,81.80,0500000US08105,37.58251473,-106.38324128,RIO GRANDE
8107,Colorado,ROUTT COUNTY,25733,13399,12334,10.0,2.9,30.67,0.09,398.0,46.03,0500000US08107,40.48514311,-106.99125368,ROUTT
8109,Colorado,SAGUACHE COUNTY,6843,3426,3417,1.9,10.9,37.46,0.13,513.0,62.77,0500000US08109,38.08052932,-106.28150943,SAGUACHE
8111,Colorado,SAN JUAN COUNTY,762,427,335,1.8,3.1,37.07,0.16,-1.0,51.38,0500000US08111,37.7640285,-107.67615655,SAN JUAN
8113,Colorado,SAN MIGUEL COUNTY,8191,4359,3832,5.7,1.7,29.5,0.08,354.8,35.93,0500000US08113,38.00376074,-108.40574848,SAN MIGUEL
8115,Colorado,SEDGWICK COUNTY,2303,1137,1166,4.3,8.7,36.9,0.19,508.0,74.33,0500000US08115,40.87591616,-102.35182388,SEDGWICK
8117,Colorado,SUMMIT COUNTY,31007,16816,14191,46.0,3.3,28.7,0.08,240.0,14.27,0500000US08117,39.6341803,-106.11636795,SUMMIT
8119,Colorado,TELLER COUNTY,25083,12734,12349,41.9,4.6,32.81,0.12,563.5,43.58,0500000US08119,38.88215689,-105.16177913,TELLER
8121,Colorado,WASHINGTON COUNTY,4909,2552,2357,1.9,11.1,37.1,0.14,504.0,71.72,0500000US08121,39.97101797,-103.20124537,WASHINGTON
8123,Colorado,WELD COUNTY,314305,158475,155830,63.4,6.9,33.81,0.08,374.8,57.93,0500000US08123,40.55484334,-104.39246686,WELD
8125,Colorado,YUMA COUNTY,10020,4989,5031,4.2,7.7,37.13,0.13,449.0,64.26,0500000US08125,40.00293263,-102.4242488,YUMA
9001,Connecticut,FAIRFIELD COUNTY,943823,459748,484075,1467.2,6.4,34.4,0.11,547.5,34.15,0500000US09001,41.27069452,-73.38925977,FAIRFIELD
9003,Connecticut,HARTFORD COUNTY,892697,434117,458580,1216.2,8.6,36.06,0.12,576.0,44.55,0500000US09003,41.80640495,-72.73286196,HARTFORD
9005,Connecticut,LITCHFIELD COUNTY,181111,89551,91560,206.3,7.0,35.29,0.14,684.5,50.32,0500000US09005,41.79247872,-73.24532305,LITCHFIELD
9007,Connecticut,MIDDLESEX COUNTY,162682,79242,83440,448.6,5.7,35.02,0.14,661.5,43.06,0500000US09007,41.46318767,-72.53514428,MIDDLESEX
9009,Connecticut,NEW HAVEN COUNTY,857620,413494,444126,1426.7,8.6,37.69,0.12,585.5,45.49,0500000US09009,41.41031302,-72.93200193,NEW HAVEN
9011,Connecticut,NEW LONDON COUNTY,266784,133702,133082,412.2,7.5,37.21,0.12,596.0,55.15,0500000US09011,41.48661393,-72.10147371,NEW LONDON
9013,Connecticut,TOLLAND COUNTY,150921,75598,75323,372.2,7.3,36.51,0.11,515.5,45.35,0500000US09013,41.85504158,-72.33647669,TOLLAND
9015,Connecticut,WINDHAM COUNTY,117027,57943,59084,230.9,9.6,39.1,0.11,585.0,63.13,0500000US09015,41.83001974,-71.98743863,WINDHAM
10001,Delaware,KENT COUNTY,178550,86023,92527,276.9,11.6,40.69,0.12,625.0,62.05,0500000US10001,39.08616818,-75.56842164,KENT
10003,Delaware,NEW CASTLE COUNTY,559335,271123,288212,1263.2,9.4,36.18,0.1,552.0,49.38,0500000US10003,39.57683385,-75.6526916,NEW CASTLE
10005,Delaware,SUSSEX COUNTY,229286,110781,118505,210.6,9.5,37.78,0.18,797.5,50.21,0500000US10005,38.6605521,-75.39003793,SUSSEX
12001,Florida,ALACHUA COUNTY,269956,130428,139528,282.7,9.2,38.09,0.09,462.5,52.85,0500000US12001,29.6747508,-82.35772521,ALACHUA
12003,Florida,BAKER COUNTY,28355,14917,13438,46.3,14.6,43.51,0.09,467.5,97.07,0500000US12003,30.33109792,-82.28462852,BAKER
12005,Florida,BAY COUNTY,185287,91929,93358,222.6,10.0,39.16,0.12,597.0,79.48,0500000US12005,30.26519099,-85.62025897,BAY
12007,Florida,BRADFORD COUNTY,27732,15318,12414,97.0,10.9,43.71,0.12,587.0,76.84,0500000US12007,29.9499506,-82.16877022,BRADFORD
12009,Florida,BREVARD COUNTY,596849,291903,304946,535.0,10.1,36.57,0.17,751.0,57.16,0500000US12009,28.29369262,-80.73227533,BREVARD
12011,Florida,BROWARD COUNTY,1951260,950568,1000692,1444.9,8.1,37.46,0.12,537.0,39.77,0500000US12011,26.15232207,-80.48712623,BROWARD
12013,Florida,CALHOUN COUNTY,14587,7962,6625,25.8,14.9,42.65,0.13,541.0,87.93,0500000US12013,30.40601588,-85.19720063,CALHOUN
12015,Florida,CHARLOTTE COUNTY,184998,90256,94742,235.2,8.1,38.2,0.29,955.5,46.68,0500000US12015,26.90549779,-81.91225682,CHARLOTTE
12017,Florida,CITRUS COUNTY,147929,71714,76215,242.8,10.5,37.45,0.27,1038.0,74.78,0500000US12017,28.84890755,-82.4793965,CITRUS
12019,Florida,CLAY COUNTY,216072,106560,109512,315.8,10.0,38.11,0.1,570.0,72.47,0500000US12019,29.98306744,-81.85787717,CLAY
12021,Florida,COLLIER COUNTY,378488,186769,191719,160.9,6.1,34.71,0.25,656.5,30.13,0500000US12021,26.11072788,-81.34758796,COLLIER
12023,Florida,COLUMBIA COUNTY,70503,36366,34137,84.7,13.0,41.81,0.13,633.0,89.46,0500000US12023,30.22425181,-82.62153956,COLUMBIA
12027,Florida,DESOTO COUNTY,37489,21230,16259,54.7,12.7,40.33,0.16,536.0,49.68,0500000US12027,27.18636649,-81.80937518,DESOTO
12029,Florida,DIXIE COUNTY,16700,9244,7456,23.3,12.1,40.96,0.17,761.0,86.51,0500000US12029,29.6081917,-83.15880068,DIXIE
12031,Florida,DUVAL COUNTY,950181,460434,489747,1133.9,11.3,41.4,0.09,559.0,59.14,0500000US12031,30.33157371,-81.67084289,DUVAL
12033,Florida,ESCAMBIA COUNTY,315534,156179,159355,453.4,11.8,40.12,0.11,568.0,70.16,0500000US12033,30.66892661,-87.36278319,ESCAMBIA
12035,Florida,FLAGLER COUNTY,112067,53927,58140,197.1,8.5,37.79,0.21,852.0,42.30,0500000US12035,29.4614335,-81.31355777,FLAGLER
12037,Florida,FRANKLIN COUNTY,11736,6545,5191,21.6,9.9,41.74,0.16,604.5,76.47,0500000US12037,29.87641286,-84.8140003,FRANKLIN
12039,Florida,GADSDEN COUNTY,45894,21790,24104,89.8,17.9,47.29,0.12,547.5,55.88,0500000US12039,30.57947846,-84.61362479,GADSDEN
12041,Florida,GILCHRIST COUNTY,18256,9429,8827,48.4,12.8,39.96,0.14,598.0,74.86,0500000US12041,29.72583504,-82.80038467,GILCHRIST
12043,Florida,GLADES COUNTY,13724,7719,6005,16.0,18.0,39.98,0.21,561.0,44.14,0500000US12043,26.95646569,-81.1889944,GLADES
12045,Florida,GULF COUNTY,16164,9461,6703,28.1,11.0,41.48,0.14,621.0,80.75,0500000US12045,29.9555334,-85.22659247,GULF
12047,Florida,HAMILTON COUNTY,14310,8283,6027,28.8,13.8,46.35,0.12,504.8,77.50,0500000US12047,30.4963889,-82.94793376,HAMILTON
12049,Florida,HARDEE COUNTY,27245,14376,12869,43.5,15.1,40.26,0.12,481.0,62.70,0500000US12049,27.49269572,-81.80993615,HARDEE
12051,Florida,HENDRY COUNTY,41556,22163,19393,34.0,10.5,39.83,0.1,392.5,59.17,0500000US12051,26.5534677,-81.16584532,HENDRY
12053,Florida,HERNANDO COUNTY,190865,91975,98890,365.6,11.8,38.36,0.2,916.5,64.16,0500000US12053,28.55362881,-82.42502928,HERNANDO
12055,Florida,HIGHLANDS COUNTY,105424,51515,53909,97.2,10.6,40.18,0.27,816.0,61.60,0500000US12055,27.34332488,-81.34103496,HIGHLANDS
12057,Florida,HILLSBOROUGH COUNTY,1436888,702940,733948,1204.9,9.2,36.82,0.1,513.0,52.95,0500000US12057,27.92907697,-82.3091924,HILLSBOROUGH
12059,Florida,HOLMES COUNTY,19477,10336,9141,41.6,12.3,40.4,0.14,376.2,101.51,0500000US12059,30.86792168,-85.81402071,HOLMES
12061,Florida,INDIAN RIVER COUNTY,157413,75421,81992,274.5,9.3,35.33,0.24,838.5,41.12,0500000US12061,27.69427836,-80.60623176,INDIAN RIVER
12063,Florida,JACKSON COUNTY,48305,26615,21690,54.2,13.8,43.65,0.14,434.2,66.29,0500000US12063,30.79542273,-85.21548725,JACKSON
12065,Florida,JEFFERSON COUNTY,14288,7491,6797,24.7,10.6,43.49,0.16,584.5,55.63,0500000US12065,30.43749378,-83.8952972,JEFFERSON
12067,Florida,LAFAYETTE COUNTY,8732,4986,3746,16.3,14.2,42.3,0.11,464.0,79.80,0500000US12067,29.98550102,-83.18108885,LAFAYETTE
12069,Florida,LAKE COUNTY,356495,172515,183980,316.6,9.7,38.61,0.19,820.5,46.09,0500000US12069,28.76154249,-81.71125801,LAKE
12071,Florida,LEE COUNTY,754610,369372,385238,788.7,8.1,35.48,0.21,687.0,40.13,0500000US12071,26.57778207,-81.83374077,LEE
12073,Florida,LEON COUNTY,292502,138642,153860,413.1,8.8,37.41,0.09,378.0,47.91,0500000US12073,30.45803977,-84.27790577,LEON
12075,Florida,LEVY COUNTY,40770,19903,20867,36.5,11.4,40.3,0.17,777.0,75.89,0500000US12075,29.31842758,-82.74355483,LEVY
12077,Florida,LIBERTY COUNTY,8457,5215,3242,10.0,12.8,41.97,0.1,380.5,91.93,0500000US12077,30.24131614,-84.88289702,LIBERTY
12079,Florida,MADISON COUNTY,18529,9799,8730,27.6,14.8,45.68,0.14,460.8,61.37,0500000US12079,30.44412188,-83.4701207,MADISON
12081,Florida,MANATEE COUNTY,394855,190647,204208,434.5,7.4,37.06,0.2,708.0,40.00,0500000US12081,27.47190077,-82.31531177,MANATEE
12083,Florida,MARION COUNTY,359977,172642,187335,209.1,11.8,39.66,0.21,879.0,57.75,0500000US12083,29.21020767,-82.05665142,MARION
12085,Florida,MARTIN COUNTY,160912,79518,81394,269.2,6.4,35.3,0.23,827.0,45.67,0500000US12085,27.07752525,-80.43147649,MARTIN
12086,Florida,MIAMI-DADE COUNTY,2761581,1340718,1420863,1315.5,6.7,34.98,0.11,487.0,33.65,0500000US12086,25.61495879,-80.56228861,MIAMI-DADE
12087,Florida,MONROE COUNTY,75027,39005,36022,74.3,4.8,37.19,0.15,640.0,39.11,0500000US12087,25.3156521,-81.11063826,MONROE
12089,Florida,NASSAU COUNTY,85832,42254,43578,113.0,8.6,39.11,0.15,760.5,70.06,0500000US12089,30.61059899,-81.80161576,NASSAU
12091,Florida,OKALOOSA COUNTY,207269,104997,102272,194.4,10.1,37.46,0.11,515.5,71.16,0500000US12091,30.69129164,-86.591755,OKALOOSA
12093,Florida,OKEECHOBEE COUNTY,41537,22289,19248,52.0,12.2,39.4,0.14,641.0,76.53,0500000US12093,27.38641495,-80.88862754,OKEECHOBEE
12095,Florida,ORANGE COUNTY,1380645,677345,703300,1268.5,9.3,37.73,0.08,407.0,45.49,0500000US12095,28.51442127,-81.32351462,ORANGE
12097,Florida,OSCEOLA COUNTY,367990,181463,186527,202.4,11.0,37.51,0.09,440.2,52.08,0500000US12097,28.06268353,-81.1494715,OSCEOLA
12099,Florida,PALM BEACH COUNTY,1485941,720762,765179,670.2,7.7,35.16,0.18,676.0,32.77,0500000US12099,26.64760393,-80.46548122,PALM BEACH
12101,Florida,PASCO COUNTY,539630,262406,277224,622.2,10.3,38.1,0.16,744.5,65.69,0500000US12101,28.30909514,-82.39320065,PASCO
12103,Florida,PINELLAS COUNTY,975280,467828,507452,3347.5,8.0,36.74,0.18,733.0,48.48,0500000US12103,27.91960849,-82.72559748,PINELLAS
12105,Florida,POLK COUNTY,708009,346929,361080,334.9,12.6,39.22,0.14,658.0,55.88,0500000US12105,27.94888003,-81.69757651,POLK
12107,Florida,PUTNAM COUNTY,74163,36699,37464,102.2,14.2,43.8,0.16,729.0,86.99,0500000US12107,29.60865505,-81.74430582,PUTNAM
12109,Florida,ST. JOHNS COUNTY,254261,124017,130244,316.4,6.1,34.69,0.14,637.5,48.72,0500000US12109,29.90164405,-81.44066528,ST. JOHNS
12111,Florida,ST. LUCIE COUNTY,321128,156975,164153,485.7,8.9,38.28,0.17,659.0,52.69,0500000US12111,27.37726181,-80.47201674,ST. LUCIE
12113,Florida,SANTA ROSA COUNTY,179349,91404,87945,149.6,9.9,37.81,0.11,521.0,74.35,0500000US12113,30.70044161,-87.0219783,SANTA ROSA
12115,Florida,SARASOTA COUNTY,426718,203342,223376,682.6,5.7,34.72,0.27,937.0,36.05,0500000US12115,27.18446817,-82.3315045,SARASOTA
12117,Florida,SEMINOLE COUNTY,467832,226010,241822,1367.0,8.5,34.64,0.1,501.2,49.57,0500000US12117,28.71697375,-81.23632002,SEMINOLE
12119,Florida,SUMTER COUNTY,128754,64194,64560,170.8,9.9,41.61,0.42,1178.0,31.34,0500000US12119,28.70474669,-82.08096614,SUMTER
12121,Florida,SUWANNEE COUNTY,44191,22743,21448,60.3,11.5,40.38,0.15,657.5,84.44,0500000US12121,30.19560599,-82.99149165,SUWANNEE
12123,Florida,TAYLOR COUNTY,21623,11798,9825,21.6,11.7,42.57,0.14,585.0,75.41,0500000US12123,30.04701355,-83.60352458,TAYLOR
12125,Florida,UNION COUNTY,14940,9623,5317,63.8,12.8,43.29,0.1,1361.0,103.74,0500000US12125,30.04385513,-82.37143292,UNION
12127,Florida,VOLUSIA COUNTY,547538,267217,280321,449.2,10.2,39.61,0.17,697.0,63.79,0500000US12127,29.05841714,-81.18192472,VOLUSIA
12129,Florida,WAKULLA COUNTY,32461,17327,15134,50.8,7.6,39.92,0.1,491.0,78.40,0500000US12129,30.16732473,-84.40067384,WAKULLA
12131,Florida,WALTON COUNTY,71375,36080,35295,53.0,10.8,40.28,0.14,543.5,65.91,0500000US12131,30.64358007,-86.16968869,WALTON
12133,Florida,WASHINGTON COUNTY,24880,13350,11530,42.7,13.0,41.78,0.12,481.5,86.23,0500000US12133,30.61059822,-85.66530562,WASHINGTON
13001,Georgia,APPLING COUNTY,18507,9240,9267,36.0,16.2,44.45,0.12,509.5,98.04,0500000US13001,31.74922043,-82.28889298,APPLING
13003,Georgia,ATKINSON COUNTY,8297,4188,4109,24.7,12.4,44.66,0.09,445.8,116.44,0500000US13003,31.29716328,-82.88006601,ATKINSON
13005,Georgia,BACON COUNTY,11185,5468,5717,42.9,17.4,42.95,0.1,554.5,89.51,0500000US13005,31.55367604,-82.4526905,BACON
13007,Georgia,BAKER COUNTY,3092,1529,1563,10.1,17.9,48.14,0.15,614.5,52.40,0500000US13007,31.32614478,-84.44471523,BAKER
13009,Georgia,BALDWIN COUNTY,44823,22742,22081,177.3,10.7,45.59,0.11,533.5,77.43,0500000US13009,33.06921908,-83.24961215,BALDWIN
13011,Georgia,BANKS COUNTY,18988,9645,9343,79.3,9.4,42.5,0.12,537.5,70.41,0500000US13011,34.35414717,-83.4973653,BANKS
13013,Georgia,BARROW COUNTY,80809,39597,41212,432.7,17.0,41.0,0.08,498.5,95.96,0500000US13013,33.99319054,-83.71272827,BARROW
13015,Georgia,BARTOW COUNTY,106408,52478,53930,217.9,12.7,40.8,0.09,508.2,80.79,0500000US13015,34.23786403,-84.84049102,BARTOW
13017,Georgia,BEN HILL COUNTY,16787,7965,8822,70.5,11.7,46.09,0.12,576.5,87.54,0500000US13017,31.7597746,-83.22049378,BEN HILL
13019,Georgia,BERRIEN COUNTY,19252,9454,9798,42.7,12.0,43.06,0.12,544.0,107.89,0500000US13019,31.275953,-83.22963792,BERRIEN
13021,Georgia,BIBB COUNTY,153095,71847,81248,622.8,12.4,45.02,0.1,559.5,72.06,0500000US13021,32.80649389,-83.69741622,BIBB
13023,Georgia,BLECKLEY COUNTY,12838,6124,6714,60.5,7.0,43.28,0.12,552.0,95.58,0500000US13023,32.43444372,-83.32781403,BLECKLEY
13025,Georgia,BRANTLEY COUNTY,18897,9312,9585,41.6,5.9,41.6,0.11,536.0,114.61,0500000US13025,31.196876,-81.9819055,BRANTLEY
13027,Georgia,BROOKS COUNTY,15513,7569,7944,32.9,10.6,45.12,0.13,658.5,68.04,0500000US13027,30.8419847,-83.58019148,BROOKS
13029,Georgia,BRYAN COUNTY,38109,18795,19314,69.3,11.2,39.89,0.07,481.8,97.40,0500000US13029,32.01447292,-81.44364046,BRYAN
13031,Georgia,BULLOCH COUNTY,77296,37919,39377,104.4,12.6,43.0,0.07,355.0,68.10,0500000US13031,32.39680399,-81.74317703,BULLOCH
13033,Georgia,BURKE COUNTY,22423,10682,11741,28.2,12.6,47.96,0.1,537.0,68.75,0500000US13033,33.06108477,-82.00090669,BURKE
13035,Georgia,BUTTS COUNTY,24193,12774,11419,128.3,11.6,44.01,0.1,581.5,89.33,0500000US13035,33.28787981,-83.95717716,BUTTS
13037,Georgia,CALHOUN COUNTY,6352,3830,2522,23.9,18.0,50.73,0.11,398.5,64.15,0500000US13037,31.52922423,-84.62452474,CALHOUN
13039,Georgia,CAMDEN COUNTY,53677,27469,26208,82.4,16.8,42.16,0.09,428.8,72.52,0500000US13039,30.93056308,-81.66997651,CAMDEN
13043,Georgia,CANDLER COUNTY,10836,5313,5523,45.3,10.2,45.87,0.12,483.8,80.98,0500000US13043,32.4034493,-82.07365691,CANDLER
13045,Georgia,CARROLL COUNTY,118121,57613,60508,221.5,12.6,41.17,0.09,500.5,80.06,0500000US13045,33.5827865,-85.07976818,CARROLL
13047,Georgia,CATOOSA COUNTY,67420,32610,34810,394.3,15.0,39.32,0.12,472.0,74.66,0500000US13047,34.90362849,-85.13824586,CATOOSA
13049,Georgia,CHARLTON COUNTY,12968,7436,5532,15.7,16.0,46.72,0.11,469.0,87.67,0500000US13049,30.78172967,-82.13793184,CHARLTON
13051,Georgia,CHATHAM COUNTY,289195,138978,150217,621.7,9.9,41.91,0.1,487.5,55.60,0500000US13051,32.0042146,-81.13283532,CHATHAM
13053,Georgia,CHATTAHOOCHEE COUNTY,10684,6843,3841,45.3,9.9,41.19,0.03,186.4,70.85,0500000US13053,32.34698613,-84.78702536,CHATTAHOOCHEE
13055,Georgia,CHATTOOGA COUNTY,24790,12680,12110,83.0,10.8,43.09,0.12,617.0,84.93,0500000US13055,34.47500026,-85.34534078,CHATTOOGA
13057,Georgia,CHEROKEE COUNTY,254149,125168,128981,508.3,9.3,35.67,0.09,512.0,56.54,0500000US13057,34.24394975,-84.47619199,CHEROKEE
13059,Georgia,CLARKE COUNTY,127330,60322,67008,979.1,8.1,42.73,0.07,366.8,53.73,0500000US13059,33.9511735,-83.36733406,CLARKE
13061,Georgia,CLAY COUNTY,2887,1362,1525,16.3,12.2,50.63,0.19,661.5,52.07,0500000US13061,31.62626821,-84.98011556,CLAY
13063,Georgia,CLAYTON COUNTY,289615,135554,154061,1832.5,11.6,45.02,0.05,386.5,57.62,0500000US13063,33.541907,-84.35764544,CLAYTON
13065,Georgia,CLINCH COUNTY,6648,3232,3416,8.5,24.2,47.23,0.11,604.5,87.58,0500000US13065,30.91499483,-82.70625646,CLINCH
13067,Georgia,COBB COUNTY,756865,366600,390265,2026.4,8.4,34.45,0.08,449.5,46.80,0500000US13067,33.94148002,-84.57669032,COBB
13069,Georgia,COFFEE COUNTY,43093,22140,20953,73.7,10.5,45.1,0.09,482.0,95.02,0500000US13069,31.54932062,-82.84916303,COFFEE
13071,Georgia,COLQUITT COUNTY,45592,22585,23007,83.6,16.8,42.77,0.1,496.5,83.35,0500000US13071,31.18837428,-83.76880418,COLQUITT
13073,Georgia,COLUMBIA COUNTY,154291,75273,79018,427.6,9.4,36.23,0.09,410.8,51.56,0500000US13073,33.5441204,-82.26404964,COLUMBIA
13075,Georgia,COOK COUNTY,17162,8268,8894,75.8,14.4,44.13,0.11,545.5,93.04,0500000US13075,31.15401262,-83.43047989,COOK
13077,Georgia,COWETA COUNTY,145864,70983,74881,288.8,8.6,39.08,0.09,487.0,68.55,0500000US13077,33.35346406,-84.76335254,COWETA
13079,Georgia,CRAWFORD COUNTY,12318,6214,6104,38.9,18.0,44.7,0.12,631.5,60.19,0500000US13079,32.71450344,-83.98633222,CRAWFORD
13081,Georgia,CRISP COUNTY,22601,10687,11914,86.0,17.2,46.39,0.13,563.5,63.72,0500000US13081,31.92291475,-83.76805081,CRISP
13083,Georgia,DADE COUNTY,16226,7971,8255,95.6,22.6,40.62,0.13,536.5,76.02,0500000US13083,34.85455352,-85.50451732,DADE
13085,Georgia,DAWSON COUNTY,25083,12400,12683,105.9,14.2,37.98,0.13,571.0,59.87,0500000US13085,34.44429925,-84.17062074,DAWSON
13087,Georgia,DECATUR COUNTY,26575,12857,13718,46.6,13.1,46.15,0.11,530.0,75.67,0500000US13087,30.87834851,-84.57904679,DECATUR
13089,Georgia,DEKALB COUNTY,756558,357770,398788,2585.7,8.5,41.94,0.08,433.5,37.63,0500000US13089,33.77153952,-84.22642246,DEKALB
13091,Georgia,DODGE COUNTY,20705,10787,9918,44.0,14.8,44.87,0.12,488.2,84.38,0500000US13091,32.17220919,-83.16840435,DODGE
13093,Georgia,DOOLY COUNTY,13706,7451,6255,38.1,14.2,48.87,0.14,470.8,57.43,0500000US13093,32.15718712,-83.79876702,DOOLY
13095,Georgia,DOUGHERTY COUNTY,91243,41868,49375,287.7,13.8,47.9,0.1,533.5,66.83,0500000US13095,31.53346418,-84.21638639,DOUGHERTY
13097,Georgia,DOUGLAS COUNTY,145331,69035,76296,661.8,10.0,40.31,0.07,452.5,62.26,0500000US13097,33.7018423,-84.76795623,DOUGLAS
13099,Georgia,EARLY COUNTY,10247,4782,5465,21.5,17.1,48.96,0.14,619.0,58.13,0500000US13099,31.32285087,-84.90364841,EARLY
13101,Georgia,ECHOLS COUNTY,4000,2067,1933,9.7,11.0,40.52,0.08,412.8,81.60,0500000US13101,30.71005038,-82.89396096,ECHOLS
13103,Georgia,EFFINGHAM COUNTY,62190,30999,31191,109.4,9.6,40.78,0.07,470.2,78.84,0500000US13103,32.36728667,-81.34135202,EFFINGHAM
13105,Georgia,ELBERT COUNTY,19120,9147,9973,57.4,6.3,44.84,0.14,641.0,71.40,0500000US13105,34.11679166,-82.84014212,ELBERT
13107,Georgia,EMANUEL COUNTY,22612,11130,11482,33.2,16.1,46.2,0.11,500.5,87.83,0500000US13107,32.5897426,-82.30171421,EMANUEL
13109,Georgia,EVANS COUNTY,10721,5216,5505,60.2,6.3,45.6,0.11,512.0,75.72,0500000US13109,32.15675936,-81.88687975,EVANS
13111,Georgia,FANNIN COUNTY,25964,12610,13354,61.2,11.5,40.7,0.2,828.5,74.88,0500000US13111,34.86408384,-84.31983457,FANNIN
13113,Georgia,FAYETTE COUNTY,113459,55009,58450,548.3,9.7,35.19,0.12,573.0,45.46,0500000US13113,33.41395118,-84.49418058,FAYETTE
13115,Georgia,FLOYD COUNTY,97927,47307,50620,188.9,12.9,41.02,0.11,560.0,66.77,0500000US13115,34.26318227,-85.21426128,FLOYD
13117,Georgia,FORSYTH COUNTY,236612,117339,119273,783.5,7.3,33.35,0.08,467.8,51.46,0500000US13117,34.22554325,-84.12502041,FORSYTH
13119,Georgia,FRANKLIN COUNTY,23023,11292,11731,84.5,11.9,41.47,0.13,675.5,81.54,0500000US13119,34.37546558,-83.22914802,FRANKLIN
13121,Georgia,FULTON COUNTY,1050114,508527,541587,1748.0,8.3,39.94,0.08,440.5,40.61,0500000US13121,33.79027484,-84.46699574,FULTON
13123,Georgia,GILMER COUNTY,30816,15437,15379,66.3,16.8,40.09,0.16,723.5,64.34,0500000US13123,34.69116739,-84.45562464,GILMER
13125,Georgia,GLASCOCK COUNTY,2995,1484,1511,21.4,15.2,42.11,0.13,553.5,71.66,0500000US13125,33.22928289,-82.61070062,GLASCOCK
13127,Georgia,GLYNN COUNTY,85219,40136,45083,189.7,12.6,41.15,0.14,586.5,73.67,0500000US13127,31.2308965,-81.54071674,GLYNN
13129,Georgia,GORDON COUNTY,57685,28429,29256,155.1,13.7,41.12,0.1,524.0,75.62,0500000US13129,34.50335587,-84.87570979,GORDON
13131,Georgia,GRADY COUNTY,24748,11931,12817,55.0,15.1,44.32,0.12,568.5,62.40,0500000US13131,30.87466408,-84.2344425,GRADY
13133,Georgia,GREENE COUNTY,17698,8521,9177,41.3,10.2,44.63,0.2,822.5,47.42,0500000US13133,33.57883097,-83.16667526,GREENE
13135,Georgia,GWINNETT COUNTY,927781,452986,474795,1871.2,10.9,35.16,0.06,380.2,49.15,0500000US13135,33.9617302,-84.02359641,GWINNETT
13137,Georgia,HABERSHAM COUNTY,45388,21450,23938,155.5,7.3,39.68,0.13,604.5,68.31,0500000US13137,34.63102982,-83.53110826,HABERSHAM
13139,Georgia,HALL COUNTY,202148,100538,101610,457.5,11.7,38.79,0.1,516.5,61.37,0500000US13139,34.31689981,-83.81967103,HALL
13141,Georgia,HANCOCK COUNTY,8348,4593,3755,20.0,16.4,53.24,0.16,581.5,54.46,0500000US13141,33.27041901,-83.00071009,HANCOCK
13143,Georgia,HARALSON COUNTY,29533,14335,15198,102.0,7.6,41.69,0.11,614.0,91.88,0500000US13143,33.79421779,-85.21101834,HARALSON
13145,Georgia,HARRIS COUNTY,34475,17245,17230,69.0,11.7,39.95,0.12,586.0,51.56,0500000US13145,32.73603643,-84.9088945,HARRIS
13147,Georgia,HART COUNTY,26099,12929,13170,108.5,6.3,42.66,0.15,654.0,67.20,0500000US13147,34.35083482,-82.96422076,HART
13149,Georgia,HEARD COUNTY,11879,5916,5963,40.0,18.3,42.76,0.11,630.0,93.26,0500000US13149,33.29703942,-85.12833608,HEARD
13151,Georgia,HENRY COUNTY,230220,109748,120472,633.0,12.3,39.62,0.07,463.0,69.45,0500000US13151,33.45298838,-84.1542077,HENRY
13153,Georgia,HOUSTON COUNTY,155469,75339,80130,372.5,9.4,42.23,0.08,453.5,59.57,0500000US13153,32.45900653,-83.66622735,HOUSTON
13155,Georgia,IRWIN COUNTY,9398,4889,4509,26.9,16.3,44.27,0.13,594.5,79.28,0500000US13155,31.60221521,-83.27635628,IRWIN
13157,Georgia,JACKSON COUNTY,70422,34706,35716,178.1,10.9,40.88,0.1,570.0,79.56,0500000US13157,34.13388622,-83.56636173,JACKSON
13159,Georgia,JASPER COUNTY,14040,6866,7174,37.8,10.9,43.45,0.11,642.5,61.37,0500000US13159,33.31654181,-83.68797107,JASPER
13161,Georgia,JEFF DAVIS COUNTY,15029,7408,7621,45.6,23.3,43.35,0.11,476.2,98.09,0500000US13161,31.8056119,-82.6368292,JEFF DAVIS
13163,Georgia,JEFFERSON COUNTY,15430,7447,7983,32.2,20.3,49.68,0.12,569.0,61.21,0500000US13163,33.05486603,-82.41818235,JEFFERSON
13165,Georgia,JENKINS COUNTY,8683,4658,4025,24.0,12.5,47.3,0.11,513.5,83.47,0500000US13165,32.79244727,-81.96354954,JENKINS
13167,Georgia,JOHNSON COUNTY,9708,5441,4267,32.9,13.0,47.71,0.13,461.0,73.57,0500000US13167,32.70146079,-82.66008005,JOHNSON
13169,Georgia,JONES COUNTY,28616,13847,14769,72.8,18.4,42.12,0.12,565.0,74.30,0500000US13169,33.0251206,-83.56049439,JONES
13171,Georgia,LAMAR COUNTY,19000,9150,9850,99.8,19.3,44.08,0.11,604.5,81.44,0500000US13171,33.07653569,-84.13947124,LAMAR
13173,Georgia,LANIER COUNTY,10340,5226,5114,54.4,32.3,44.83,0.09,502.0,85.54,0500000US13173,31.03787304,-83.06275584,LANIER
13175,Georgia,LAURENS COUNTY,47325,22395,24930,60.0,14.5,44.93,0.12,561.0,77.86,0500000US13175,32.46365199,-82.92223334,LAURENS
13177,Georgia,LEE COUNTY,29764,14924,14840,79.5,24.6,39.7,0.08,528.5,71.72,0500000US13177,31.77953375,-84.1411386,LEE
13179,Georgia,LIBERTY COUNTY,61497,31168,30329,129.5,14.6,45.63,0.06,330.5,71.79,0500000US13179,31.82808897,-81.49472946,LIBERTY
13181,Georgia,LINCOLN COUNTY,7915,3836,4079,38.0,13.9,46.02,0.16,723.0,63.96,0500000US13181,33.79363686,-82.45114102,LINCOLN
13183,Georgia,LONG COUNTY,18998,9583,9415,36.1,9.7,45.62,0.06,287.0,76.79,0500000US13183,31.75255496,-81.74569587,LONG
13185,Georgia,LOWNDES COUNTY,116321,56320,60001,220.2,16.2,43.29,0.08,415.2,75.53,0500000US13185,30.83382647,-83.26773335,LOWNDES
13187,Georgia,LUMPKIN COUNTY,32955,16335,16620,105.9,10.2,39.6,0.12,613.5,82.49,0500000US13187,34.57219334,-84.00266402,LUMPKIN
13189,Georgia,MCDUFFIE COUNTY,21531,10081,11450,85.0,17.3,44.54,0.12,605.0,68.95,0500000US13189,33.48286367,-82.48137227,MCDUFFIE
13191,Georgia,MCINTOSH COUNTY,14340,7001,7339,33.8,12.1,46.07,0.18,619.5,63.14,0500000US13191,31.49665951,-81.40846877,MCINTOSH
13193,Georgia,MACON COUNTY,13143,7203,5940,36.8,15.8,49.91,0.11,532.0,60.75,0500000US13193,32.35839007,-84.04249138,MACON
13195,Georgia,MADISON COUNTY,29650,14661,14989,99.6,14.3,41.08,0.11,643.0,93.71,0500000US13195,34.12778565,-83.20903334,MADISON
13197,Georgia,MARION COUNTY,8351,4112,4239,23.9,21.0,46.79,0.14,471.8,71.85,0500000US13197,32.35339876,-84.52466305,MARION
13199,Georgia,MERIWETHER COUNTY,21068,10085,10983,43.9,18.3,45.74,0.14,674.0,56.59,0500000US13199,33.04066417,-84.68831064,MERIWETHER
13201,Georgia,MILLER COUNTY,5686,2725,2961,21.7,16.9,43.26,0.16,672.5,66.25,0500000US13201,31.16400317,-84.73079295,MILLER
13205,Georgia,MITCHELL COUNTY,22192,11510,10682,45.9,10.0,47.89,0.11,559.5,58.76,0500000US13205,31.2253194,-84.19427447,MITCHELL
13207,Georgia,MONROE COUNTY,27520,13723,13797,66.8,9.1,41.83,0.13,645.5,52.78,0500000US13207,33.01391898,-83.9186587,MONROE
13209,Georgia,MONTGOMERY COUNTY,9193,4727,4466,38.1,8.0,44.35,0.11,530.5,83.70,0500000US13209,32.17339359,-82.53477369,MONTGOMERY
13211,Georgia,MORGAN COUNTY,18853,9068,9785,51.4,11.5,42.25,0.14,667.5,49.92,0500000US13211,33.59092001,-83.49227571,MORGAN
13213,Georgia,MURRAY COUNTY,39921,19623,20298,115.0,19.1,41.97,0.1,471.5,98.05,0500000US13213,34.78843306,-84.74807122,MURRAY
13215,Georgia,MUSCOGEE COUNTY,194160,94349,99811,877.5,12.9,44.03,0.09,490.0,70.04,0500000US13215,32.51002332,-84.87705002,MUSCOGEE
13217,Georgia,NEWTON COUNTY,109541,51731,57810,367.3,16.8,42.31,0.08,504.0,69.92,0500000US13217,33.55503935,-83.85019192,NEWTON
13219,Georgia,OCONEE COUNTY,39272,19271,20001,178.0,5.0,35.33,0.1,531.5,51.67,0500000US13219,33.83496303,-83.43710285,OCONEE
13221,Georgia,OGLETHORPE COUNTY,15054,7439,7615,33.9,10.0,41.68,0.13,627.0,58.68,0500000US13221,33.88066847,-83.08071311,OGLETHORPE
13223,Georgia,PAULDING COUNTY,164044,79857,84187,455.8,11.9,39.57,0.07,431.8,65.91,0500000US13223,33.92053372,-84.86729517,PAULDING
13225,Georgia,PEACH COUNTY,27297,13158,14139,184.3,13.9,45.2,0.11,566.0,70.91,0500000US13225,32.56875523,-83.82688858,PEACH
13227,Georgia,PICKENS COUNTY,31980,15696,16284,126.8,11.3,39.24,0.14,834.0,75.98,0500000US13227,34.46433178,-84.46556299,PICKENS
13229,Georgia,PIERCE COUNTY,19389,9586,9803,59.3,19.0,41.32,0.12,531.0,94.88,0500000US13229,31.35876189,-82.21276122,PIERCE
13231,Georgia,PIKE COUNTY,18634,9164,9470,82.7,4.6,40.58,0.11,536.0,75.78,0500000US13231,33.09228331,-84.38925957,PIKE
13233,Georgia,POLK COUNTY,42470,20992,21478,133.6,14.7,44.66,0.11,590.5,96.00,0500000US13233,34.00179086,-85.18814291,POLK
13235,Georgia,PULASKI COUNTY,11069,4774,6295,48.2,19.5,44.53,0.16,502.8,57.88,0500000US13235,32.23229663,-83.47596051,PULASKI
13237,Georgia,PUTNAM COUNTY,21809,10643,11166,61.6,19.3,43.04,0.16,756.0,56.70,0500000US13237,33.32176673,-83.37279374,PUTNAM
13239,Georgia,QUITMAN COUNTY,2279,1090,1189,16.6,13.1,48.88,0.22,924.5,57.33,0500000US13239,31.86735459,-85.01876743,QUITMAN
13241,Georgia,RABUN COUNTY,16867,8295,8572,44.0,14.7,39.16,0.19,780.5,66.90,0500000US13241,34.88173558,-83.40207292,RABUN
13243,Georgia,RANDOLPH COUNTY,6833,3157,3676,18.0,9.4,50.19,0.17,606.5,53.12,0500000US13243,31.76265515,-84.75418864,RANDOLPH
13245,Georgia,RICHMOND COUNTY,201554,97624,103930,618.4,11.6,46.21,0.09,493.0,66.23,0500000US13245,33.35959631,-82.07350669,RICHMOND
13247,Georgia,ROCKDALE COUNTY,90594,42596,47998,656.5,13.2,39.2,0.09,508.0,58.64,0500000US13247,33.65425099,-84.02659018,ROCKDALE
13249,Georgia,SCHLEY COUNTY,5236,2484,2752,30.0,5.2,44.59,0.12,475.5,54.43,0500000US13249,32.26166256,-84.31475698,SCHLEY
13251,Georgia,SCREVEN COUNTY,13938,6902,7036,22.6,10.6,46.72,0.12,613.5,69.15,0500000US13251,32.75060689,-81.61194155,SCREVEN
13253,Georgia,SEMINOLE COUNTY,8315,3981,4334,37.1,7.3,45.19,0.16,660.0,73.54,0500000US13253,30.93878566,-84.86883881,SEMINOLE
13255,Georgia,SPALDING COUNTY,66100,31749,34351,326.1,13.8,44.17,0.12,636.0,88.04,0500000US13255,33.26087827,-84.28409667,SPALDING
13257,Georgia,STEPHENS COUNTY,26035,12508,13527,146.1,9.5,41.54,0.13,672.0,94.41,0500000US13257,34.55395872,-83.29346611,STEPHENS
13259,Georgia,STEWART COUNTY,6199,4094,2105,13.2,14.0,49.26,0.11,570.0,60.35,0500000US13259,32.07849175,-84.83522641,STEWART
13261,Georgia,SUMTER COUNTY,29733,13967,15766,68.0,13.7,46.82,0.11,555.0,59.24,0500000US13261,32.03994212,-84.19698913,SUMTER
13263,Georgia,TALBOT COUNTY,6272,3002,3270,17.5,18.8,50.48,0.16,693.0,65.78,0500000US13263,32.69950045,-84.53300848,TALBOT
13265,Georgia,TALIAFERRO COUNTY,1608,796,812,8.8,12.7,53.22,0.18,636.5,57.78,0500000US13265,33.56613644,-82.87876437,TALIAFERRO
13267,Georgia,TATTNALL COUNTY,25391,14640,10751,53.2,22.3,45.45,0.1,447.5,85.94,0500000US13267,32.04579527,-82.05812492,TATTNALL
13269,Georgia,TAYLOR COUNTY,8039,3842,4197,23.6,7.4,47.78,0.14,599.5,73.27,0500000US13269,32.55547785,-84.25046676,TAYLOR
13271,Georgia,TELFAIR COUNTY,15876,9284,6592,37.7,15.0,48.5,0.13,391.0,78.37,0500000US13271,31.92979969,-82.93901283,TELFAIR
13273,Georgia,TERRELL COUNTY,8611,4122,4489,27.8,12.1,50.05,0.14,661.0,66.54,0500000US13273,31.77700473,-84.43697461,TERRELL
13275,Georgia,THOMAS COUNTY,44448,21047,23401,82.1,12.3,44.9,0.12,606.5,54.70,0500000US13275,30.86375611,-83.91931744,THOMAS
13277,Georgia,TIFT COUNTY,40571,19622,20949,154.9,11.2,44.79,0.1,565.5,75.27,0500000US13277,31.45742889,-83.52660074,TIFT
13279,Georgia,TOOMBS COUNTY,26887,12781,14106,74.8,14.5,44.04,0.11,534.5,93.67,0500000US13279,32.12161497,-82.33121291,TOOMBS
13281,Georgia,TOWNS COUNTY,11852,5658,6194,62.9,3.7,38.57,0.25,1060.0,56.40,0500000US13281,34.91663642,-83.73729976,TOWNS
13283,Georgia,TREUTLEN COUNTY,6809,3386,3423,34.5,8.1,47.74,0.12,497.0,89.66,0500000US13283,32.4038748,-82.5672882,TREUTLEN
13285,Georgia,TROUP COUNTY,70034,33785,36249,161.9,10.1,43.17,0.1,536.5,69.07,0500000US13285,33.03353969,-85.02836507,TROUP
13287,Georgia,TURNER COUNTY,7912,3844,4068,31.3,16.2,46.24,0.14,693.5,85.33,0500000US13287,31.71638175,-83.62408552,TURNER
13289,Georgia,TWIGGS COUNTY,8188,4017,4171,25.2,13.7,48.41,0.15,667.0,71.45,0500000US13289,32.66720007,-83.42707865,TWIGGS
13291,Georgia,UNION COUNTY,24001,11619,12382,66.3,11.5,39.18,0.23,1034.0,54.42,0500000US13291,34.83408627,-83.99075353,UNION
13293,Georgia,UPSON COUNTY,26215,12447,13768,84.0,10.1,43.66,0.13,706.5,91.79,0500000US13293,32.8812748,-84.29934918,UPSON
13295,Georgia,WALKER COUNTY,69410,34154,35256,154.0,16.6,41.35,0.13,516.5,89.56,0500000US13295,34.735645,-85.30099012,WALKER
13297,Georgia,WALTON COUNTY,93503,45507,47996,257.2,9.2,40.83,0.1,545.5,73.94,0500000US13297,33.78155698,-83.73386957,WALTON
13299,Georgia,WARE COUNTY,35680,17853,17827,40.7,11.1,44.81,0.12,572.5,94.54,0500000US13299,31.05378874,-82.42371841,WARE
13301,Georgia,WARREN COUNTY,5251,2488,2763,20.5,21.6,50.51,0.16,667.0,67.48,0500000US13301,33.40894817,-82.67675069,WARREN
13303,Georgia,WASHINGTON COUNTY,20386,10399,9987,31.2,17.2,48.58,0.12,634.0,63.19,0500000US13303,32.96953332,-82.79593098,WASHINGTON
13305,Georgia,WAYNE COUNTY,29808,15284,14524,46.9,10.4,43.16,0.11,551.0,84.32,0500000US13305,31.55144704,-81.91672482,WAYNE
13307,Georgia,WEBSTER COUNTY,2611,1303,1308,13.4,8.7,47.21,0.17,541.5,50.98,0500000US13307,32.0466477,-84.55105995,WEBSTER
13309,Georgia,WHEELER COUNTY,7879,5095,2784,25.1,10.1,48.57,0.1,420.5,75.89,0500000US13309,32.11705301,-82.7245872,WHEELER
13311,Georgia,WHITE COUNTY,29970,14619,15351,112.8,12.3,39.09,0.16,694.5,66.33,0500000US13311,34.64638263,-83.7471098,WHITE
13313,Georgia,WHITFIELD COUNTY,104062,51848,52214,353.2,11.6,40.84,0.1,423.2,72.31,0500000US13313,34.80560622,-84.96720588,WHITFIELD
13315,Georgia,WILCOX COUNTY,8812,5264,3548,24.5,21.8,48.34,0.13,550.0,84.72,0500000US13315,31.97287676,-83.43231943,WILCOX
13317,Georgia,WILKES COUNTY,9876,4741,5135,22.6,17.5,46.67,0.17,675.5,68.28,0500000US13317,33.78195197,-82.74319916,WILKES
13319,Georgia,WILKINSON COUNTY,9036,4323,4713,21.4,11.5,45.42,0.14,655.0,78.92,0500000US13319,32.80238011,-83.17123913,WILKINSON
13321,Georgia,WORTH COUNTY,20299,9752,10547,38.0,29.8,44.43,0.13,629.5,71.99,0500000US13321,31.55150873,-83.85089157,WORTH
15001,Hawaii,HAWAII COUNTY,200983,99602,101381,45.9,8.6,37.36,0.13,512.0,31.89,0500000US15001,19.59872083,-155.51849348,HAWAII
15003,Hawaii,HONOLULU COUNTY,980080,492574,487506,1586.7,9.5,33.71,0.13,503.5,26.20,0500000US15003,21.50078536,-158.10533418,HONOLULU
15005,Hawaii,KALAWAO COUNTY,88,41,47,7.5,6.5,36.01,0.3,-1.0,32.05,0500000US15005,21.17088659,-156.94753063,KALAWAO
15007,Hawaii,KAUAI COUNTY,72133,35607,36526,108.2,7.9,35.72,0.13,492.5,28.39,0500000US15007,22.03962537,-159.59634878,KAUAI
15009,Hawaii,MAUI COUNTY,167207,83178,84029,133.3,8.6,35.97,0.12,500.8,32.05,0500000US15009,20.8596399,-156.56484601,MAUI
16001,Idaho,ADA COUNTY,469966,235266,234700,372.8,7.4,34.06,0.09,468.5,54.67,0500000US16001,43.45109249,-116.24116076,ADA
16003,Idaho,ADAMS COUNTY,4250,2211,2039,2.9,5.1,38.13,0.18,667.0,42.47,0500000US16003,44.88959322,-116.45382538,ADAMS
16005,Idaho,BANNOCK COUNTY,87138,43328,43810,74.5,8.9,36.31,0.09,373.2,65.33,0500000US16005,42.66848392,-112.22461076,BANNOCK
16007,Idaho,BEAR LAKE COUNTY,6050,3017,3033,6.1,5.9,36.39,0.14,460.0,60.05,0500000US16007,42.28474986,-111.3296579,BEAR LAKE
16009,Idaho,BENEWAH COUNTY,9226,4718,4508,12.0,6.3,37.06,0.15,624.0,80.37,0500000US16009,47.21755274,-116.65870876,BENEWAH
16011,Idaho,BINGHAM COUNTY,46236,23036,23200,21.8,11.1,36.78,0.09,411.5,58.80,0500000US16011,43.21655732,-112.3980734,BINGHAM
16013,Idaho,BLAINE COUNTY,22601,11456,11145,8.1,3.3,30.24,0.12,512.0,36.49,0500000US16013,43.41194442,-113.9801748,BLAINE
16015,Idaho,BOISE COUNTY,7634,3975,3659,3.7,9.3,35.63,0.15,655.0,50.98,0500000US16015,43.98913103,-115.73036314,BOISE
16017,Idaho,BONNER COUNTY,44727,22306,22421,23.6,6.5,37.61,0.16,669.0,50.02,0500000US16017,48.3000358,-116.60122768,BONNER
16019,Idaho,BONNEVILLE COUNTY,116854,58375,58479,55.9,8.7,34.81,0.09,415.2,63.75,0500000US16019,43.38773727,-111.61479127,BONNEVILLE
16021,Idaho,BOUNDARY COUNTY,11948,6005,5943,8.6,6.9,36.45,0.14,645.0,59.33,0500000US16021,48.76693516,-116.46288485,BOUNDARY
16023,Idaho,BUTTE COUNTY,2611,1318,1293,1.3,6.6,37.93,0.16,650.5,58.38,0500000US16023,43.72291305,-113.17206231,BUTTE
16025,Idaho,CAMAS COUNTY,1127,570,557,1.0,3.8,36.71,0.14,617.5,45.31,0500000US16025,43.46332928,-114.80576729,CAMAS
16027,Idaho,CANYON COUNTY,223499,110725,112774,321.6,9.1,37.81,0.09,459.0,63.21,0500000US16027,43.62513644,-116.70931238,CANYON
16029,Idaho,CARIBOU COUNTY,7060,3610,3450,3.9,11.3,35.53,0.12,476.0,59.80,0500000US16029,42.77049893,-111.56225849,CARIBOU
16031,Idaho,CASSIA COUNTY,23864,12155,11709,8.9,10.4,37.59,0.1,361.8,60.98,0500000US16031,42.28383249,-113.60012579,CASSIA
16033,Idaho,CLARK COUNTY,852,432,420,0.6,2.8,37.75,0.12,-1.0,64.39,0500000US16033,44.2840296,-112.35135799,CLARK
16035,Idaho,CLEARWATER COUNTY,8758,4818,3940,3.6,8.7,37.28,0.19,805.5,69.50,0500000US16035,46.67365172,-115.65664927,CLEARWATER
16037,Idaho,CUSTER COUNTY,4280,2196,2084,0.9,5.1,37.17,0.19,709.5,48.74,0500000US16037,44.24112145,-114.2817304,CUSTER
16039,Idaho,ELMORE COUNTY,27259,14290,12969,8.8,10.8,37.57,0.09,448.0,64.41,0500000US16039,43.35395434,-115.46929751,ELMORE
16041,Idaho,FRANKLIN COUNTY,13726,7022,6704,19.3,6.8,36.78,0.1,342.5,35.75,0500000US16041,42.18110342,-111.81322371,FRANKLIN
16043,Idaho,FREMONT COUNTY,13168,6888,6280,7.1,9.9,37.79,0.11,463.5,42.27,0500000US16043,44.22881429,-111.482082,FREMONT
16045,Idaho,GEM COUNTY,17634,8813,8821,29.8,8.9,37.81,0.15,716.0,66.93,0500000US16045,44.06154619,-116.39751662,GEM
16047,Idaho,GOODING COUNTY,15196,7736,7460,21.2,9.3,38.23,0.12,531.5,61.05,0500000US16047,42.97102578,-114.81153846,GOODING
16049,Idaho,IDAHO COUNTY,16513,8664,7849,1.9,7.1,37.69,0.19,669.0,57.80,0500000US16049,45.84409581,-115.4674635,IDAHO
16051,Idaho,JEFFERSON COUNTY,29439,14952,14487,23.9,10.5,36.89,0.07,363.0,48.15,0500000US16051,43.82015564,-112.31131237,JEFFERSON
16053,Idaho,JEROME COUNTY,24015,12241,11774,37.5,6.4,36.41,0.09,408.5,64.30,0500000US16053,42.68987596,-114.26392555,JEROME
16055,Idaho,KOOTENAI COUNTY,161505,79774,81731,111.3,6.3,36.37,0.13,608.0,58.60,0500000US16055,47.67437499,-116.70182587,KOOTENAI
16057,Idaho,LATAH COUNTY,40134,20398,19736,34.6,5.7,34.47,0.09,408.0,47.69,0500000US16057,46.81617019,-116.71168195,LATAH
16059,Idaho,LEMHI COUNTY,7961,4030,3931,1.7,7.1,37.69,0.21,835.5,65.39,0500000US16059,44.94330278,-113.93337469,LEMHI
16061,Idaho,LEWIS COUNTY,3861,1963,1898,8.0,9.0,38.46,0.18,719.0,57.40,0500000US16061,46.23700084,-116.42631186,LEWIS
16063,Idaho,LINCOLN COUNTY,5360,2780,2580,4.3,11.3,36.49,0.09,462.0,62.96,0500000US16063,43.00237907,-114.13828764,LINCOLN
16065,Idaho,MADISON COUNTY,39304,19890,19414,80.0,9.9,39.37,0.05,200.8,34.98,0500000US16065,43.78414331,-111.65923606,MADISON
16067,Idaho,MINIDOKA COUNTY,20825,10433,10392,26.5,11.6,38.57,0.11,456.5,52.98,0500000US16067,42.85429094,-113.63747728,MINIDOKA
16069,Idaho,NEZ PERCE COUNTY,40408,19961,20447,46.3,8.4,36.36,0.14,627.5,62.12,0500000US16069,46.3268203,-116.75023877,NEZ PERCE
16071,Idaho,ONEIDA COUNTY,4488,2254,2234,3.6,6.2,36.65,0.14,457.2,45.55,0500000US16071,42.19491651,-112.53926055,ONEIDA
16073,Idaho,OWYHEE COUNTY,11693,5965,5728,1.5,11.8,38.11,0.12,469.2,64.77,0500000US16073,42.58148784,-116.1699219,OWYHEE
16075,Idaho,PAYETTE COUNTY,23551,11755,11796,55.6,9.0,38.46,0.13,595.5,67.12,0500000US16075,44.00675625,-116.76082123,PAYETTE
16077,Idaho,POWER COUNTY,7768,3952,3816,5.6,12.4,36.54,0.1,412.5,72.89,0500000US16077,42.69365993,-112.84067754,POWER
16079,Idaho,SHOSHONE COUNTY,12796,6422,6374,4.9,7.0,37.36,0.15,762.0,74.50,0500000US16079,47.35300367,-115.89240938,SHOSHONE
16081,Idaho,TETON COUNTY,11640,6111,5529,22.6,4.4,33.21,0.07,291.0,32.80,0500000US16081,43.7594455,-111.20762183,TETON
16083,Idaho,TWIN FALLS COUNTY,86081,42488,43593,40.2,7.6,36.68,0.11,482.8,71.96,0500000US16083,42.35596929,-114.66715057,TWIN FALLS
16085,Idaho,VALLEY COUNTY,11041,5720,5321,2.7,4.5,32.98,0.15,618.0,39.85,0500000US16085,44.76660739,-115.56633722,VALLEY
16087,Idaho,WASHINGTON COUNTY,10161,5058,5103,7.0,8.6,37.79,0.17,711.5,58.65,0500000US16087,44.45242382,-116.78473628,WASHINGTON
17001,Illinois,ADAMS COUNTY,65691,32308,33383,78.5,9.0,38.16,0.14,619.0,69.57,0500000US17001,39.98786061,-91.18852909,ADAMS
17003,Illinois,ALEXANDER COUNTY,6060,2932,3128,35.0,6.0,47.53,0.15,765.5,79.29,0500000US17003,37.1915178,-89.3375614,ALEXANDER
17005,Illinois,BOND COUNTY,16630,8645,7985,46.7,3.5,39.72,0.12,642.5,52.48,0500000US17005,38.8868325,-89.43555406,BOND
17007,Illinois,BOONE COUNTY,53577,26785,26792,193.0,8.3,36.85,0.11,506.5,59.37,0500000US17007,42.32306855,-88.82337346,BOONE
17009,Illinois,BROWN COUNTY,6556,4245,2311,22.7,4.7,41.68,0.1,486.5,62.37,0500000US17009,39.9618275,-90.75034309,BROWN
17011,Illinois,BUREAU COUNTY,32993,16199,16794,40.2,8.9,37.5,0.15,711.0,53.34,0500000US17011,41.40414419,-89.52867298,BUREAU
17013,Illinois,CALHOUN COUNTY,4802,2393,2409,20.0,6.2,38.56,0.17,751.0,57.31,0500000US17013,39.16924303,-90.66753133,CALHOUN
17015,Illinois,CARROLL COUNTY,14312,7137,7175,34.6,6.0,37.76,0.18,705.5,56.38,0500000US17015,42.06868304,-89.93438903,CARROLL
17017,Illinois,CASS COUNTY,12260,6192,6068,36.3,5.7,37.7,0.12,663.0,75.66,0500000US17017,39.9735688,-90.24742015,CASS
17019,Illinois,CHAMPAIGN COUNTY,209983,104634,105349,201.8,9.9,37.97,0.08,402.8,51.24,0500000US17019,40.14009213,-88.19920011,CHAMPAIGN
17021,Illinois,CHRISTIAN COUNTY,32661,16620,16041,49.1,11.6,39.94,0.14,746.0,54.52,0500000US17021,39.54580001,-89.27727502,CHRISTIAN
17023,Illinois,CLARK COUNTY,15596,7745,7851,32.6,5.3,39.44,0.14,651.5,64.96,0500000US17023,39.33359992,-87.78767952,CLARK
17025,Illinois,CLAY COUNTY,13253,6564,6689,29.5,7.1,40.07,0.14,734.5,75.74,0500000US17025,38.75415397,-88.49016155,CLAY
17027,Illinois,CLINTON COUNTY,37639,19499,18140,79.7,11.7,37.81,0.12,572.0,48.88,0500000US17027,38.60644391,-89.42249411,CLINTON
17029,Illinois,COLES COUNTY,50885,24678,26207,106.0,9.0,38.17,0.12,513.0,75.94,0500000US17029,39.52026813,-88.22180962,COLES
17031,Illinois,COOK COUNTY,5180493,2516081,2664412,5495.1,9.0,39.85,0.1,487.8,41.02,0500000US17031,41.84003421,-87.81671114,COOK
17033,Illinois,CRAWFORD COUNTY,18807,9832,8975,44.7,10.0,40.44,0.13,642.5,67.39,0500000US17033,39.00272279,-87.75963357,CRAWFORD
17035,Illinois,CUMBERLAND COUNTY,10808,5376,5432,31.9,19.5,39.15,0.13,599.5,66.30,0500000US17035,39.27330647,-88.2402145,CUMBERLAND
17037,Illinois,DEKALB COUNTY,104143,51577,52566,166.6,5.8,37.28,0.08,462.2,50.08,0500000US17037,41.89353623,-88.77030975,DEKALB
17039,Illinois,DE WITT COUNTY,15769,7804,7965,41.7,8.5,38.57,0.13,740.5,68.91,0500000US17039,40.17461294,-88.9040838,DE WITT
17041,Illinois,DOUGLAS COUNTY,19479,9620,9859,48.0,7.3,38.38,0.13,626.5,71.16,0500000US17041,39.76945802,-88.21737097,DOUGLAS
17043,Illinois,DUPAGE COUNTY,928589,456211,472378,2799.8,7.7,32.31,0.1,515.0,40.66,0500000US17043,41.85195031,-88.08562984,DUPAGE
17045,Illinois,EDGAR COUNTY,17360,8510,8850,29.8,7.0,39.15,0.15,658.5,84.37,0500000US17045,39.67856632,-87.7455922,EDGAR
17047,Illinois,EDWARDS COUNTY,6392,3149,3243,30.2,3.9,39.94,0.15,647.0,62.05,0500000US17047,38.41654346,-88.05327929,EDWARDS
17049,Illinois,EFFINGHAM COUNTY,34208,17043,17165,71.5,10.7,37.81,0.12,612.5,55.80,0500000US17049,39.05978488,-88.58986896,EFFINGHAM
17051,Illinois,FAYETTE COUNTY,21416,11304,10112,30.9,9.4,41.71,0.13,560.5,65.12,0500000US17051,39.0001871,-89.02413326,FAYETTE
17053,Illinois,FORD COUNTY,13264,6556,6708,29.0,3.8,37.85,0.13,693.0,64.39,0500000US17053,40.59719154,-88.22326766,FORD
17055,Illinois,FRANKLIN COUNTY,38701,19092,19609,96.8,5.6,40.07,0.14,763.5,100.19,0500000US17055,37.99227784,-88.92413921,FRANKLIN
17057,Illinois,FULTON COUNTY,34844,18133,16711,42.8,6.6,39.25,0.14,644.0,65.84,0500000US17057,40.47275594,-90.20747016,FULTON
17059,Illinois,GALLATIN COUNTY,5058,2470,2588,17.3,11.7,41.38,0.17,673.0,78.31,0500000US17059,37.76270327,-88.23054404,GALLATIN
17061,Illinois,GREENE COUNTY,13044,6566,6478,25.6,9.5,39.57,0.14,717.5,66.64,0500000US17061,39.35621514,-90.39046163,GREENE
17063,Illinois,GRUNDY COUNTY,50972,25422,25550,119.8,4.4,37.73,0.09,570.5,56.55,0500000US17063,41.28511269,-88.41846868,GRUNDY
17065,Illinois,HAMILTON COUNTY,8163,3992,4171,19.5,17.1,41.01,0.16,773.5,64.85,0500000US17065,38.0815762,-88.53912403,HAMILTON
17067,Illinois,HANCOCK COUNTY,17844,8850,8994,24.1,5.4,37.28,0.16,672.0,58.36,0500000US17067,40.4037443,-91.16473335,HANCOCK
17069,Illinois,HARDIN COUNTY,3910,1984,1926,24.3,3.3,41.43,0.17,713.0,92.33,0500000US17069,37.51822879,-88.26683845,HARDIN
17071,Illinois,HENDERSON COUNTY,6709,3276,3433,19.3,10.6,38.67,0.18,688.0,61.19,0500000US17071,40.81802987,-90.92511015,HENDERSON
17073,Illinois,HENRY COUNTY,49090,24469,24621,61.3,11.3,37.66,0.14,653.5,57.55,0500000US17073,41.35313741,-90.13143017,HENRY
17075,Illinois,IROQUOIS COUNTY,27604,13561,14043,26.6,6.6,39.45,0.15,679.5,59.96,0500000US17075,40.74723756,-87.82435705,IROQUOIS
17077,Illinois,JACKSON COUNTY,57419,28550,28869,103.1,4.7,38.97,0.11,441.5,56.61,0500000US17077,37.78514417,-89.38212887,JACKSON
17079,Illinois,JASPER COUNTY,9611,4808,4803,19.6,8.2,39.16,0.13,675.5,54.77,0500000US17079,39.0100288,-88.15382269,JASPER
17081,Illinois,JEFFERSON COUNTY,37820,19447,18373,68.0,8.4,41.12,0.13,681.0,73.31,0500000US17081,38.3005248,-88.92399276,JEFFERSON
17083,Illinois,JERSEY COUNTY,21847,10677,11170,62.2,12.3,38.69,0.13,596.5,55.06,0500000US17083,39.0856827,-90.35668648,JERSEY
17085,Illinois,JO DAVIESS COUNTY,21366,10692,10674,37.7,7.3,37.53,0.19,756.5,44.05,0500000US17085,42.36575465,-90.21249872,JO DAVIESS
17087,Illinois,JOHNSON COUNTY,12456,6797,5659,36.6,6.8,41.83,0.15,637.5,72.10,0500000US17087,37.45962932,-88.88092569,JOHNSON
17089,Illinois,KANE COUNTY,534216,266050,268166,990.8,8.8,35.61,0.09,439.8,43.66,0500000US17089,41.93888273,-88.42864146,KANE
17091,Illinois,KANKAKEE COUNTY,110024,54154,55870,167.7,9.4,41.06,0.11,580.0,59.09,0500000US17091,41.13770636,-87.86182303,KANKAKEE
17093,Illinois,KENDALL COUNTY,127915,63410,64505,358.2,7.9,36.31,0.07,422.2,48.91,0500000US17093,41.59053608,-88.42884609,KENDALL
17095,Illinois,KNOX COUNTY,50112,25273,24839,73.9,15.2,39.18,0.15,646.5,84.89,0500000US17095,40.93180051,-90.21326801,KNOX
17097,Illinois,LAKE COUNTY,700832,350273,350559,1585.6,7.8,32.58,0.09,479.2,43.74,0500000US17097,42.32336966,-88.00362426,LAKE
17099,Illinois,LASALLE COUNTY,109430,55226,54204,100.4,11.6,38.75,0.13,679.5,60.10,0500000US17099,41.34398618,-88.88595621,LASALLE
17101,Illinois,LAWRENCE COUNTY,15765,8836,6929,45.2,16.3,39.84,0.12,583.0,75.14,0500000US17101,38.71996147,-87.72675417,LAWRENCE
17103,Illinois,LEE COUNTY,34223,18173,16050,49.7,6.9,38.81,0.13,673.0,59.50,0500000US17103,41.74619254,-89.30037714,LEE
17105,Illinois,LIVINGSTON COUNTY,35761,17935,17826,37.3,8.8,39.15,0.13,679.0,60.53,0500000US17105,40.89156823,-88.55771838,LIVINGSTON
17107,Illinois,LOGAN COUNTY,28925,14685,14240,49.0,17.2,38.69,0.13,728.0,60.92,0500000US17107,40.12455912,-89.36754276,LOGAN
17109,Illinois,MCDONOUGH COUNTY,29955,14674,15281,55.3,8.9,38.95,0.12,544.0,61.51,0500000US17109,40.45619881,-90.67791334,MCDONOUGH
17111,Illinois,MCHENRY COUNTY,308570,153614,154956,511.9,9.0,34.9,0.09,491.2,57.84,0500000US17111,42.32445571,-88.45236681,MCHENRY
17113,Illinois,MCLEAN COUNTY,172828,83968,88860,143.3,11.0,33.91,0.09,447.5,58.63,0500000US17113,40.4908762,-88.84733255,MCLEAN
17115,Illinois,MACON COUNTY,104712,50158,54554,190.8,12.6,40.43,0.14,724.5,58.29,0500000US17115,39.85998527,-88.96160533,MACON
17117,Illinois,MACOUPIN COUNTY,45313,22409,22904,55.4,13.1,39.58,0.13,686.5,60.90,0500000US17117,39.26100434,-89.9244317,MACOUPIN
17119,Illinois,MADISON COUNTY,264461,128768,135693,376.3,9.4,39.22,0.12,597.0,68.88,0500000US17119,38.82986951,-89.90513435,MADISON
17121,Illinois,MARION COUNTY,37620,18393,19227,68.9,15.2,40.62,0.14,718.0,82.90,0500000US17121,38.64959333,-88.91897994,MARION
17123,Illinois,MARSHALL COUNTY,11534,5725,5809,32.7,10.9,38.03,0.17,764.5,56.02,0500000US17123,41.03316517,-89.34475828,MARSHALL
17125,Illinois,MASON COUNTY,13565,6689,6876,27.2,10.5,39.24,0.16,710.0,78.89,0500000US17125,40.23965652,-89.91677237,MASON
17127,Illinois,MASSAC COUNTY,14080,6743,7337,65.0,24.3,40.84,0.15,646.0,105.11,0500000US17127,37.21896984,-88.70772194,MASSAC
17129,Illinois,MENARD COUNTY,12288,5989,6299,40.4,8.1,37.21,0.13,710.0,59.34,0500000US17129,40.027391,-89.80218839,MENARD
17131,Illinois,MERCER COUNTY,15601,7792,7809,29.3,9.7,38.05,0.15,685.5,68.76,0500000US17131,41.20533159,-90.74144127,MERCER
17133,Illinois,MONROE COUNTY,34335,17058,17277,85.6,7.4,37.2,0.12,559.5,52.27,0500000US17133,38.27854665,-90.17737295,MONROE
17135,Illinois,MONTGOMERY COUNTY,28601,14983,13618,42.8,10.8,39.67,0.14,678.5,53.98,0500000US17135,39.23103204,-89.4788853,MONTGOMERY
17137,Illinois,MORGAN COUNTY,33976,17247,16729,62.5,12.9,38.22,0.14,709.5,68.28,0500000US17137,39.71556131,-90.20147064,MORGAN
17139,Illinois,MOULTRIE COUNTY,14717,7204,7513,44.2,3.9,37.78,0.13,607.5,63.92,0500000US17139,39.6414162,-88.61930187,MOULTRIE
17141,Illinois,OGLE COUNTY,50923,25292,25631,70.5,5.8,37.21,0.13,595.5,55.82,0500000US17141,42.04264351,-89.32065381,OGLE
17143,Illinois,PEORIA COUNTY,180621,87517,93104,301.2,9.5,38.69,0.12,579.0,58.58,0500000US17143,40.78805466,-89.75998309,PEORIA
17145,Illinois,PERRY COUNTY,21174,11659,9515,50.6,10.3,40.31,0.13,613.5,71.71,0500000US17145,38.08376433,-89.36697944,PERRY
17147,Illinois,PIATT COUNTY,16396,8125,8271,38.1,16.9,36.89,0.13,672.5,51.20,0500000US17147,40.01035587,-88.59110192,PIATT
17149,Illinois,PIKE COUNTY,15611,7829,7782,19.8,6.9,39.92,0.15,703.0,70.11,0500000US17149,39.62249582,-90.88628245,PIKE
17151,Illinois,POPE COUNTY,4212,2178,2034,12.1,7.1,40.4,0.19,784.5,66.96,0500000US17151,37.4126994,-88.5615041,POPE
17153,Illinois,PULASKI COUNTY,5463,2655,2808,30.9,17.0,46.57,0.15,757.5,81.56,0500000US17153,37.2228826,-89.12658246,PULASKI
17155,Illinois,PUTNAM COUNTY,5740,2923,2817,37.5,4.1,38.6,0.15,695.5,46.71,0500000US17155,41.20446135,-89.28584151,PUTNAM
17157,Illinois,RANDOLPH COUNTY,32106,17656,14450,58.2,12.3,40.55,0.13,648.0,64.83,0500000US17157,38.05213258,-89.8253219,RANDOLPH
17159,Illinois,RICHLAND COUNTY,15763,7799,7964,45.1,11.1,38.19,0.15,681.5,57.07,0500000US17159,38.71239139,-88.08510758,RICHLAND
17161,Illinois,ROCK ISLAND COUNTY,143477,70680,72797,345.0,12.1,38.56,0.13,584.0,57.41,0500000US17161,41.46731819,-90.56737908,ROCK ISLAND
17163,Illinois,ST. CLAIR COUNTY,261059,125939,135120,410.6,8.6,42.44,0.11,541.5,69.63,0500000US17163,38.47029941,-89.9283906,ST. CLAIR
17165,Illinois,SALINE COUNTY,23906,11799,12107,65.6,9.3,40.41,0.14,683.0,86.59,0500000US17165,37.75319469,-88.54080046,SALINE
17167,Illinois,SANGAMON COUNTY,195348,93741,101607,227.4,9.6,36.89,0.12,648.0,59.13,0500000US17167,39.75816439,-89.65887864,SANGAMON
17169,Illinois,SCHUYLER COUNTY,6907,3624,3283,17.3,12.4,38.42,0.16,727.0,54.95,0500000US17169,40.15802892,-90.61508104,SCHUYLER
17171,Illinois,SCOTT COUNTY,4926,2434,2492,21.3,11.6,38.11,0.14,782.0,64.43,0500000US17171,39.64412032,-90.47469767,SCOTT
17173,Illinois,SHELBY COUNTY,21741,10815,10926,29.5,9.0,38.98,0.16,695.5,50.07,0500000US17173,39.39112299,-88.80559173,SHELBY
17175,Illinois,STARK COUNTY,5427,2687,2740,20.8,4.7,37.49,0.16,677.0,64.11,0500000US17175,41.09332491,-89.79751404,STARK
17177,Illinois,STEPHENSON COUNTY,44753,21756,22997,84.5,8.2,38.34,0.16,611.0,59.34,0500000US17177,42.35171622,-89.66236349,STEPHENSON
17179,Illinois,TAZEWELL COUNTY,132328,65040,67288,208.6,10.8,37.54,0.13,637.0,56.21,0500000US17179,40.50753262,-89.51341823,TAZEWELL
17181,Illinois,UNION COUNTY,16841,8439,8402,43.1,8.3,39.54,0.15,744.0,71.75,0500000US17181,37.47123179,-89.25511246,UNION
17183,Illinois,VERMILION COUNTY,76806,38221,38585,90.9,14.8,41.22,0.13,669.0,86.67,0500000US17183,40.18344542,-87.73284123,VERMILION
17185,Illinois,WABASH COUNTY,11549,5824,5725,53.5,10.3,39.78,0.14,656.5,71.82,0500000US17185,38.4460076,-87.84449821,WABASH
17187,Illinois,WARREN COUNTY,17032,8397,8635,32.6,15.7,37.97,0.13,607.5,61.96,0500000US17187,40.84880898,-90.61500878,WARREN
17189,Illinois,WASHINGTON COUNTY,13995,6988,7007,26.2,8.8,39.32,0.14,669.5,45.37,0500000US17189,38.35216171,-89.41044646,WASHINGTON
17191,Illinois,WAYNE COUNTY,16332,8036,8296,23.5,11.8,40.03,0.15,684.5,76.71,0500000US17191,38.4295736,-88.42562842,WAYNE
17193,Illinois,WHITE COUNTY,13665,6732,6933,29.6,3.6,39.25,0.16,759.5,82.40,0500000US17193,38.08741024,-88.17955687,WHITE
17195,Illinois,WHITESIDE COUNTY,55626,27568,28058,85.5,8.3,38.15,0.14,653.0,62.37,0500000US17195,41.75627489,-89.91409595,WHITESIDE
17197,Illinois,WILL COUNTY,692310,343551,348759,809.6,8.9,37.18,0.09,486.5,45.10,0500000US17197,41.44503591,-87.97854481,WILL
17199,Illinois,WILLIAMSON COUNTY,67056,33319,33737,157.9,10.8,38.6,0.13,675.0,71.40,0500000US17199,37.73025419,-88.92991759,WILLIAMSON
17201,Illinois,WINNEBAGO COUNTY,284081,138635,145446,575.2,9.0,38.23,0.12,577.0,57.96,0500000US17201,42.3362563,-89.16084351,WINNEBAGO
17203,Illinois,WOODFORD COUNTY,38463,19189,19274,73.3,10.1,36.47,0.12,565.5,52.32,0500000US17203,40.7882266,-89.21114444,WOODFORD
18001,Indiana,ADAMS COUNTY,35636,17804,17832,101.4,8.5,39.95,0.11,469.0,47.82,0500000US18001,40.74565505,-84.93661586,ADAMS
18003,Indiana,ALLEN COUNTY,375351,183463,191888,540.6,9.6,38.2,0.1,462.5,66.92,0500000US18003,41.09088442,-85.06657426,ALLEN
18005,Indiana,BARTHOLOMEW COUNTY,82753,41627,41126,188.7,10.6,36.77,0.11,520.5,74.17,0500000US18005,39.2059525,-85.89759281,BARTHOLOMEW
18007,Indiana,BENTON COUNTY,8653,4296,4357,21.8,13.3,38.04,0.12,623.5,75.24,0500000US18007,40.60625532,-87.31093762,BENTON
18009,Indiana,BLACKFORD COUNTY,11930,5889,6041,77.3,20.9,39.46,0.15,724.0,75.04,0500000US18009,40.47363715,-85.32482138,BLACKFORD
18011,Indiana,BOONE COUNTY,66999,33331,33668,133.9,8.8,35.91,0.09,473.0,66.16,0500000US18011,40.05079489,-86.46869898,BOONE
18013,Indiana,BROWN COUNTY,15234,7507,7727,48.9,5.5,37.84,0.16,701.0,59.14,0500000US18013,39.19623155,-86.22737677,BROWN
18015,Indiana,CARROLL COUNTY,20127,10117,10010,54.1,8.7,39.0,0.13,607.5,64.84,0500000US18015,40.58284313,-86.56349418,CARROLL
18017,Indiana,CASS COUNTY,37955,18958,18997,94.5,16.4,39.54,0.12,543.5,69.12,0500000US18017,40.76153987,-86.34598335,CASS
18019,Indiana,CLARK COUNTY,117360,57274,60086,295.6,10.4,39.66,0.1,554.0,77.61,0500000US18019,38.47731366,-85.70729604,CLARK
18021,Indiana,CLAY COUNTY,26170,12930,13240,75.2,14.6,39.59,0.12,631.0,71.96,0500000US18021,39.39279543,-87.11576459,CLAY
18023,Indiana,CLINTON COUNTY,32250,16035,16215,82.0,14.9,39.16,0.11,553.0,71.75,0500000US18023,40.30169239,-86.47514551,CLINTON
18025,Indiana,CRAWFORD COUNTY,10558,5371,5187,35.1,11.8,41.29,0.13,665.0,81.19,0500000US18025,38.29237168,-86.45172211,CRAWFORD
18027,Indiana,DAVIESS COUNTY,33147,16701,16446,73.7,8.5,40.97,0.1,488.8,65.65,0500000US18027,38.7024374,-87.07204525,DAVIESS
18029,Indiana,DEARBORN COUNTY,49568,24649,24919,164.1,6.9,38.18,0.11,595.0,66.25,0500000US18029,39.14523292,-84.97331959,DEARBORN
18031,Indiana,DECATUR COUNTY,26794,13306,13488,69.1,10.5,39.46,0.11,577.0,57.01,0500000US18031,39.30700147,-85.50110908,DECATUR
18033,Indiana,DEKALB COUNTY,43226,21453,21773,116.4,6.0,38.26,0.11,492.2,72.35,0500000US18033,41.39756888,-84.99906643,DEKALB
18035,Indiana,DELAWARE COUNTY,114772,55383,59389,300.1,9.8,39.98,0.12,548.5,84.01,0500000US18035,40.22754565,-85.39689994,DELAWARE
18037,Indiana,DUBOIS COUNTY,42565,21273,21292,98.0,10.6,37.47,0.12,555.0,45.22,0500000US18037,38.36427027,-86.87980902,DUBOIS
18039,Indiana,ELKHART COUNTY,205560,101597,103963,426.5,11.5,38.31,0.1,458.0,61.75,0500000US18039,41.59738762,-85.85874779,ELKHART
18041,Indiana,FAYETTE COUNTY,23047,11381,11666,112.9,9.8,40.45,0.14,566.0,96.91,0500000US18041,39.64002908,-85.17876388,FAYETTE
18043,Indiana,FLOYD COUNTY,77781,37782,39999,504.1,12.7,38.23,0.1,547.5,73.89,0500000US18043,38.31903393,-85.9068965,FLOYD
18045,Indiana,FOUNTAIN COUNTY,16351,8162,8189,43.6,12.1,39.7,0.14,648.5,81.41,0500000US18045,40.12089839,-87.24197108,FOUNTAIN
18047,Indiana,FRANKLIN COUNTY,22736,11357,11379,60.1,9.1,39.5,0.12,578.0,53.20,0500000US18047,39.41486862,-85.06014364,FRANKLIN
18049,Indiana,FULTON COUNTY,20092,10048,10044,56.6,6.8,39.14,0.13,570.5,80.23,0500000US18049,41.04697763,-86.26353704,FULTON
18051,Indiana,GIBSON COUNTY,33452,16739,16713,68.7,9.3,39.96,0.12,556.0,66.31,0500000US18051,38.31188837,-87.58460609,GIBSON
18053,Indiana,GRANT COUNTY,65936,31558,34378,169.2,14.1,41.59,0.13,674.0,91.85,0500000US18053,40.5157998,-85.65471525,GRANT
18055,Indiana,GREENE COUNTY,32006,16020,15986,61.1,10.3,40.44,0.13,604.0,75.52,0500000US18055,39.03636025,-86.96203242,GREENE
18057,Indiana,HAMILTON COUNTY,330086,161345,168741,696.4,7.6,30.79,0.08,415.5,48.16,0500000US18057,40.0724796,-86.0520274,HAMILTON
18059,Indiana,HANCOCK COUNTY,76351,37563,38788,228.8,11.5,37.38,0.11,556.5,63.88,0500000US18059,39.82355611,-85.7732451,HANCOCK
18061,Indiana,HARRISON COUNTY,40350,20163,20187,81.2,10.2,38.91,0.12,572.5,73.32,0500000US18061,38.1952591,-86.11147706,HARRISON
18063,Indiana,HENDRICKS COUNTY,167009,83558,83451,357.4,9.8,36.96,0.09,488.5,67.14,0500000US18063,39.76951976,-86.50996979,HENDRICKS
18065,Indiana,HENRY COUNTY,48271,25099,23172,126.2,13.7,39.83,0.13,616.0,75.51,0500000US18065,39.9310632,-85.3964252,HENRY
18067,Indiana,HOWARD COUNTY,82366,39983,42383,282.4,13.8,38.97,0.14,621.0,73.42,0500000US18067,40.48360753,-86.11695939,HOWARD
18069,Indiana,HUNTINGTON COUNTY,36240,17873,18367,97.0,12.3,38.23,0.12,523.0,79.82,0500000US18069,40.82921946,-85.48813075,HUNTINGTON
18071,Indiana,JACKSON COUNTY,44111,21987,22124,83.2,13.0,38.16,0.11,552.5,79.41,0500000US18071,38.9064158,-86.03753388,JACKSON
18073,Indiana,JASPER COUNTY,33370,16601,16769,59.8,10.0,38.54,0.12,538.5,59.47,0500000US18073,41.02298748,-87.11611833,JASPER
18075,Indiana,JAY COUNTY,20764,10348,10416,55.4,16.3,40.63,0.12,611.5,71.65,0500000US18075,40.43795728,-85.00570498,JAY
18077,Indiana,JEFFERSON COUNTY,32208,15497,16711,89.9,9.3,38.91,0.12,651.5,89.04,0500000US18077,38.78576639,-85.43852731,JEFFERSON
18079,Indiana,JENNINGS COUNTY,27611,13837,13774,75.7,14.9,40.48,0.11,575.5,101.40,0500000US18079,38.99691914,-85.62804538,JENNINGS
18081,Indiana,JOHNSON COUNTY,156225,77105,79120,435.8,9.2,36.69,0.1,505.2,87.82,0500000US18081,39.48998208,-86.10161536,JOHNSON
18083,Indiana,KNOX COUNTY,36895,18682,18213,74.5,16.4,40.44,0.12,637.0,88.81,0500000US18083,38.68903104,-87.41804865,KNOX
18085,Indiana,KOSCIUSKO COUNTY,79344,39656,39688,145.6,11.7,37.14,0.11,494.8,64.91,0500000US18085,41.24407168,-85.86072324,KOSCIUSKO
18087,Indiana,LAGRANGE COUNTY,39330,19980,19350,97.8,9.5,39.69,0.09,350.5,52.99,0500000US18087,41.64262145,-85.42649137,LAGRANGE
18089,Indiana,LAKE COUNTY,484411,234475,249936,994.1,11.5,41.62,0.11,553.5,59.22,0500000US18089,41.4170614,-87.38208598,LAKE
18091,Indiana,LAPORTE COUNTY,110007,56694,53313,186.3,11.2,39.83,0.12,599.0,65.04,0500000US18091,41.5459853,-86.73996638,LAPORTE
18093,Indiana,LAWRENCE COUNTY,45668,22625,23043,102.7,13.4,39.92,0.14,626.5,68.62,0500000US18093,38.84115715,-86.48345004,LAWRENCE
18095,Indiana,MADISON COUNTY,129641,64792,64849,291.3,15.6,40.45,0.13,601.5,74.96,0500000US18095,40.16161817,-85.71935931,MADISON
18097,Indiana,MARION COUNTY,954670,460093,494577,2279.6,11.6,40.78,0.08,468.5,78.21,0500000US18097,39.78171162,-86.13846965,MARION
18099,Indiana,MARSHALL COUNTY,46248,23052,23196,106.1,10.2,38.27,0.12,512.5,69.52,0500000US18099,41.32484381,-86.26176714,MARSHALL
18101,Indiana,MARTIN COUNTY,10217,5177,5040,30.8,7.0,41.03,0.13,576.5,73.56,0500000US18101,38.70801539,-86.80307835,MARTIN
18103,Indiana,MIAMI COUNTY,35567,19133,16434,98.7,8.7,40.99,0.12,511.0,57.54,0500000US18103,40.76945637,-86.04504973,MIAMI
18105,Indiana,MONROE COUNTY,146917,73034,73883,349.7,7.0,36.32,0.09,400.2,50.95,0500000US18105,39.16091658,-86.52313822,MONROE
18107,Indiana,MONTGOMERY COUNTY,38346,19448,18898,75.6,13.3,38.75,0.13,525.5,68.55,0500000US18107,40.04039028,-86.89330263,MONTGOMERY
18109,Indiana,MORGAN COUNTY,70116,34819,35297,170.5,9.5,39.27,0.11,658.0,91.42,0500000US18109,39.4815537,-86.44625502,MORGAN
18111,Indiana,NEWTON COUNTY,14011,7073,6938,35.5,14.4,39.04,0.13,565.5,68.53,0500000US18111,40.95584353,-87.39759184,NEWTON
18113,Indiana,NOBLE COUNTY,47532,23825,23707,115.7,9.8,38.49,0.1,462.8,79.94,0500000US18113,41.39860404,-85.41750353,NOBLE
18115,Indiana,OHIO COUNTY,5844,2894,2950,71.1,4.7,39.71,0.15,601.0,63.83,0500000US18115,38.95003724,-84.96511082,OHIO
18117,Indiana,ORANGE COUNTY,19489,9719,9770,49.8,11.0,39.84,0.13,590.5,70.17,0500000US18117,38.54179057,-86.49506132,ORANGE
18119,Indiana,OWEN COUNTY,20845,10423,10422,56.0,13.1,40.43,0.13,632.5,78.66,0500000US18119,39.31279629,-86.837679,OWEN
18121,Indiana,PARKE COUNTY,16927,8000,8927,39.0,6.6,39.21,0.13,536.5,63.83,0500000US18121,39.77363337,-87.20637906,PARKE
18123,Indiana,PERRY COUNTY,19102,10232,8870,50.7,8.6,40.28,0.12,499.8,59.43,0500000US18123,38.07964568,-86.63802527,PERRY
18125,Indiana,PIKE COUNTY,12410,6187,6223,38.4,16.8,40.02,0.14,625.5,63.14,0500000US18125,38.39878361,-87.23216371,PIKE
18127,Indiana,PORTER COUNTY,169594,83930,85664,393.0,9.3,36.12,0.11,531.5,56.69,0500000US18127,41.46054892,-87.06726428,PORTER
18129,Indiana,POSEY COUNTY,25540,12755,12785,63.3,11.1,38.79,0.12,583.0,65.49,0500000US18129,38.02184104,-87.8683921,POSEY
18131,Indiana,PULASKI COUNTY,12469,6357,6112,30.9,7.3,38.94,0.13,631.5,67.44,0500000US18131,41.04185163,-86.69879581,PULASKI
18133,Indiana,PUTNAM COUNTY,37779,19840,17939,79.0,10.8,39.1,0.11,583.0,59.72,0500000US18133,39.66627483,-86.84499678,PUTNAM
18135,Indiana,RANDOLPH COUNTY,24851,12202,12649,57.9,11.4,40.23,0.14,632.5,64.87,0500000US18135,40.15758774,-85.01144274,RANDOLPH
18137,Indiana,RIPLEY COUNTY,28523,14128,14395,64.6,11.2,39.48,0.12,549.0,65.93,0500000US18137,39.10347727,-85.26237097,RIPLEY
18139,Indiana,RUSH COUNTY,16663,8223,8440,42.6,9.6,39.88,0.13,662.0,83.00,0500000US18139,39.61996631,-85.46575251,RUSH
18141,Indiana,ST. JOSEPH COUNTY,270771,131836,138935,583.0,8.7,38.08,0.1,477.5,62.48,0500000US18141,41.61666193,-86.28986711,ST. JOSEPH
18143,Indiana,SCOTT COUNTY,23878,11731,12147,127.0,12.3,40.79,0.11,592.5,101.69,0500000US18143,38.6850748,-85.74748,SCOTT
18145,Indiana,SHELBY COUNTY,44593,22146,22447,108.1,15.2,39.44,0.11,647.0,73.60,0500000US18145,39.52371573,-85.79165698,SHELBY
18147,Indiana,SPENCER COUNTY,20327,10232,10095,52.8,6.1,38.5,0.13,573.5,52.59,0500000US18147,38.01418674,-87.00771008,SPENCER
18149,Indiana,STARKE COUNTY,22935,11437,11498,75.6,7.9,40.65,0.12,674.5,81.61,0500000US18149,41.28093471,-86.64763455,STARKE
18151,Indiana,STEUBEN COUNTY,34586,17560,17026,110.7,6.7,37.96,0.13,514.5,62.67,0500000US18151,41.64389192,-85.00085918,STEUBEN
18153,Indiana,SULLIVAN COUNTY,20690,11241,9449,48.0,18.6,40.45,0.12,590.0,78.03,0500000US18153,39.0888019,-87.41477972,SULLIVAN
18155,Indiana,SWITZERLAND COUNTY,10717,5524,5193,48.1,20.6,42.15,0.12,515.0,69.77,0500000US18155,38.82618396,-85.03697688,SWITZERLAND
18157,Indiana,TIPPECANOE COUNTY,193048,98678,94370,345.7,8.3,36.51,0.08,361.5,65.91,0500000US18157,40.38861979,-86.89405929,TIPPECANOE
18159,Indiana,TIPTON COUNTY,15128,7537,7591,61.2,14.4,39.37,0.15,690.0,63.31,0500000US18159,40.31134432,-86.05185147,TIPTON
18161,Indiana,UNION COUNTY,7037,3491,3546,46.6,16.9,38.65,0.13,557.0,65.02,0500000US18161,39.62559478,-84.9251379,UNION
18163,Indiana,VANDERBURGH COUNTY,180974,87699,93275,769.7,9.7,38.8,0.11,556.5,74.00,0500000US18163,38.02525245,-87.58583574,VANDERBURGH
18165,Indiana,VERMILLION COUNTY,15479,7691,7788,63.1,14.2,39.91,0.13,656.0,76.16,0500000US18165,39.85379927,-87.46397608,VERMILLION
18167,Indiana,VIGO COUNTY,107386,54405,52981,267.4,10.7,38.95,0.11,554.0,81.53,0500000US18167,39.43065822,-87.38993026,VIGO
18169,Indiana,WABASH COUNTY,31280,15158,16122,79.7,10.8,39.05,0.15,610.5,72.19,0500000US18169,40.84564372,-85.79399877,WABASH
18171,Indiana,WARREN COUNTY,8263,4086,4177,23.3,10.5,38.05,0.14,602.0,80.03,0500000US18171,40.34693519,-87.35329538,WARREN
18173,Indiana,WARRICK COUNTY,62567,30670,31897,155.1,11.9,36.74,0.12,536.5,60.50,0500000US18173,38.09223902,-87.27209736,WARRICK
18175,Indiana,WASHINGTON COUNTY,27943,13920,14023,55.0,12.7,39.19,0.11,548.5,84.74,0500000US18175,38.59998379,-86.10529779,WASHINGTON
18177,Indiana,WAYNE COUNTY,65936,31937,33999,171.5,14.9,40.89,0.13,598.5,73.53,0500000US18177,39.86438236,-85.00983824,WAYNE
18179,Indiana,WELLS COUNTY,28206,13912,14294,75.1,9.1,37.47,0.13,546.5,64.83,0500000US18179,40.72918907,-85.221194,WELLS
18181,Indiana,WHITE COUNTY,24133,12010,12123,48.8,10.9,39.26,0.14,617.0,73.96,0500000US18181,40.7497596,-86.86548444,WHITE
18183,Indiana,WHITLEY COUNTY,34074,16983,17091,99.2,12.6,37.61,0.12,517.5,71.03,0500000US18183,41.13938044,-85.50512032,WHITLEY
19001,Iowa,ADAIR COUNTY,7063,3509,3554,13.5,9.4,37.59,0.16,706.5,47.06,0500000US19001,41.33074337,-94.47097103,ADAIR
19003,Iowa,ADAMS COUNTY,3645,1825,1820,9.5,11.4,37.75,0.16,778.0,51.93,0500000US19003,41.02897489,-94.69917128,ADAMS
